NAAM,TYPE_NAAM,GELD_START,LON,LAT,GEMEENTE
De Liereman: fasen 2 en 3,Beschermd cultuurhistorisch landschap,1984/11/23,5.040,51.332,Arendonk
"De Liereman-fase 1: moerassen, vennen en heide",Beschermd cultuurhistorisch landschap,1940/03/08,5.017,51.338,Oud-Turnhout
De Liereman-fase 1: uitbreiding,Beschermd cultuurhistorisch landschap,2006/02/23,5.011,51.338,Oud-Turnhout
Abdij van Postel,Beschermd stads- of dorpsgezicht,1997/02/13,5.190,51.289,Mol
Laagveengebied,Beschermd cultuurhistorisch landschap,2000/05/15,5.171,51.214,Mol
Buitengoor - Meergoor,Beschermd cultuurhistorisch landschap,1982/07/02,5.171,51.214,Mol
De Ronde Put en omgeving,Beschermd cultuurhistorisch landschap,1993/07/06,5.158,51.287,Mol
"Parochiekerk Sint-Jozef met pastorie, Lourdesgrot en bidtuin het Sint-Jozefshofke",Beschermd stads- of dorpsgezicht,2009/07/06,5.222,51.196,Mol
Bossen en plassen van Den Diel met sluis 3,Beschermd cultuurhistorisch landschap,2004/06/22,5.200,51.243,Mol
Kanaal Bocholt-Herentals met sluizen,Beschermd stads- of dorpsgezicht,1999/10/06,5.209,51.238,Mol
"Oorlogsmonument, scholen, klooster, elektriciteitscabine en pastorie",Beschermd stads- of dorpsgezicht,2004/01/16,5.479,51.256,Hamont-Achel
Beverbeekhoeve,Beschermd stads- of dorpsgezicht,1980/07/18,5.514,51.279,Hamont-Achel
Windmolen Napoleonsmolen en omgeving,Beschermd stads- of dorpsgezicht,1982/03/31,5.539,51.251,Hamont-Achel
Tomp van Grevenbos met omgeving,Beschermd cultuurhistorisch landschap,1947/09/24,5.497,51.267,Hamont-Achel
Huizen Rijcken en Cuppens met tuinen,Beschermd stads- of dorpsgezicht,1997/02/13,5.546,51.252,Hamont-Achel
Huis Gijbels met tuin,Beschermd stads- of dorpsgezicht,1997/02/13,5.545,51.251,Hamont-Achel
Huis Spaas met tuin,Beschermd stads- of dorpsgezicht,1997/02/13,5.544,51.251,Hamont-Achel
Huis Simons met tuin,Beschermd stads- of dorpsgezicht,1997/02/13,5.542,51.250,Hamont-Achel
Huis Geusens met tuin,Beschermd stads- of dorpsgezicht,1997/02/13,5.543,51.250,Hamont-Achel
Huis Engelen met tuin,Beschermd stads- of dorpsgezicht,1997/02/13,5.546,51.251,Hamont-Achel
Watermolen met omgeving,Beschermd cultuurhistorisch landschap,1975/07/04,5.052,51.243,Retie
Windmolen De Heerser: omgeving,Beschermd cultuurhistorisch landschap,1976/12/06,5.072,51.280,Retie
Pastorie Sint-Martinusparochie met omgeving,Beschermd stads- of dorpsgezicht,1987/01/16,5.082,51.267,Retie
Kapel Onze-Lieve-Vrouw ter Sneeuw met omgeving,Beschermd cultuurhistorisch landschap,1952/01/29,5.100,51.258,Retie
Sint-Pieterskapel met omgeving,Beschermd cultuurhistorisch landschap,1957/07/06,5.076,51.264,Retie
Etagelinde op dorpsplein Retie,Beschermd cultuurhistorisch landschap,1951/02/19,5.084,51.267,Retie
Hoeve Spooren: omgeving,Beschermd stads- of dorpsgezicht,2002/05/23,5.335,51.227,Lommel
Hoeve De Groote Hoef: omgeving,Beschermd cultuurhistorisch landschap,1974/03/21,5.325,51.222,Lommel
Marktplein,Beschermd cultuurhistorisch landschap,1974/03/29,5.308,51.231,Lommel
Hageven,Beschermd cultuurhistorisch landschap,1985/06/08,5.414,51.261,Lommel
Vloeiweiden,Beschermd cultuurhistorisch landschap,2003/05/20,5.355,51.266,Lommel
Hoeve De Boeretang met omwalling en omgeving,Beschermd cultuurhistorisch landschap,1976/10/14,5.091,51.234,Dessel
Het Goor,Beschermd cultuurhistorisch landschap,1993/07/06,5.148,51.262,Dessel
Damburghoeve met omgeving,Beschermd stads- of dorpsgezicht,1987/01/26,5.572,51.168,Bocholt
Watermolen Luysmolen met omgeving,Beschermd stads- of dorpsgezicht,1994/12/28,5.631,51.179,Bocholt
Windmolen type grondzeiler: omgeving,Beschermd stads- of dorpsgezicht,1994/10/12,5.514,51.188,Bocholt
Parochiekerk Sint-Willibrordus met omgeving,Beschermd stads- of dorpsgezicht,1985/01/17,5.562,51.155,Bocholt
Watermolen Reppelmolen: omgeving,Beschermd stads- of dorpsgezicht,1997/10/23,5.558,51.154,Bocholt
Watermolen Binkenmolen met omgeving,Beschermd stads- of dorpsgezicht,1995/12/05,5.572,51.155,Bocholt
Watermolen Clootsmolen: omgeving,Beschermd stads- of dorpsgezicht,1995/06/07,5.613,51.178,Bocholt
Pastorie Sint-Monulfus en Gondulfusparochie: tuin,Beschermd stads- of dorpsgezicht,2001/03/29,5.517,51.188,Bocholt
Sint-Luciakapel met omgeving,Beschermd cultuurhistorisch landschap,1976/10/15,5.139,51.168,Balen
Watermolen Straalmolen met omgeving,Beschermd stads- of dorpsgezicht,1997/12/23,5.126,51.143,Balen
Watermolen Hoolstmolen met omgeving,Beschermd stads- of dorpsgezicht,1987/01/12,5.153,51.150,Balen
Watermolen Topmolen: omgeving,Beschermd stads- of dorpsgezicht,1993/02/01,5.245,51.158,Balen
Pastorie Sint-Willibrordusparochie met poortgebouw en omgeving,Beschermd cultuurhistorisch landschap,1973/05/04,5.146,51.141,Balen
Windmolen Lemmensmolen met omgeving,Beschermd stads- of dorpsgezicht,1981/02/17,5.748,51.146,Kinrooi
Windmolen Keyersmolen met omgeving,Beschermd stads- of dorpsgezicht,1994/05/30,5.741,51.173,Kinrooi
Kasteel Borgitter met kasteelpark en omgeving,Beschermd stads- of dorpsgezicht,1981/01/13,5.804,51.161,Kinrooi
Hoeve Houbenhof: omgeving,Beschermd stads- of dorpsgezicht,2003/05/28,5.839,51.133,Kinrooi
Ommuurde tuin verdwenen pastorie Sint-Servatiusparochie,Beschermd stads- of dorpsgezicht,2005/10/20,5.805,51.126,Kinrooi
Stamproyerbroek,Beschermd cultuurhistorisch landschap,1985/02/08,5.688,51.180,Kinrooi
Vijverbroek,Beschermd cultuurhistorisch landschap,1993/03/11,5.824,51.160,Kinrooi
Dorpsdries Kleine Brogel en langgestrekte hoeve,Beschermd stads- of dorpsgezicht,2009/02/05,5.454,51.175,Peer
Langgestrekte hoeve en omgeving,Beschermd stads- of dorpsgezicht,2009/02/05,5.454,51.173,Peer
Vallei van de Dommel en Bollisserbeek,Beschermd cultuurhistorisch landschap,1987/12/29,5.429,51.154,Peer
Pastorie Sint-Ursulaparochie met tuin en kerkhof,Beschermd stads- of dorpsgezicht,1999/10/28,5.450,51.172,Peer
Hoeve Sannenhof: omgeving,Beschermd stads- of dorpsgezicht,2002/11/04,5.447,51.151,Peer
"Sigarenfabriek, directeurswoning, meesterwoning en omgeving",Beschermd stads- of dorpsgezicht,1994/09/01,5.405,51.130,Peer
Kapel Onze-Lieve-Vrouw-van-Rust en omgeving,Beschermd cultuurhistorisch landschap,1951/07/12,5.483,51.123,Peer
Parochiekerk Sint-Trudo met omgeving,Beschermd stads- of dorpsgezicht,1983/03/02,5.505,51.153,Peer
Afspanning en stadshoeve De Scherpe Steen en omgeving,Beschermd stads- of dorpsgezicht,1981/10/01,5.454,51.133,Peer
Watermolen Genaamolen met omgeving,Beschermd stads- of dorpsgezicht,1993/10/26,5.589,51.163,Bree
Watermolen Pollismolen met omgeving,Beschermd stads- of dorpsgezicht,1994/12/28,5.635,51.115,Bree
Parochiekerk Onze-Lieve-Vrouw met kerkhof,Beschermd stads- of dorpsgezicht,1981/09/08,5.588,51.148,Bree
Kerkhof parochiekerk Sint-Trudo en pastorietuin,Beschermd stads- of dorpsgezicht,1997/09/23,5.646,51.118,Bree
Watermolen Keyartmolen met omgeving,Beschermd stads- of dorpsgezicht,1993/11/18,5.657,51.123,Bree
Watermolen Galdermansmolen: omgeving,Beschermd stads- of dorpsgezicht,1996/03/19,5.662,51.126,Bree
Kapel van Onze-Lieve-Vrouw van Zeven Weeën: omgeving,Beschermd cultuurhistorisch landschap,1951/07/12,5.418,51.161,Hechtel-Eksel
Sint-Bernarduskapel van de Locht: omgeving,Beschermd stads- of dorpsgezicht,1999/12/16,5.366,51.141,Hechtel-Eksel
Kapel van Onze-Lieve-Vrouw van Lourdes: omgeving,Beschermd stads- of dorpsgezicht,2001/03/28,5.387,51.149,Hechtel-Eksel
Kapel van het Mussennest: omgeving,Beschermd stads- of dorpsgezicht,2001/03/28,5.406,51.145,Hechtel-Eksel
Malesbroek - Scherpenbergen,Beschermd cultuurhistorisch landschap,1985/11/29,5.034,51.142,Meerhout
Grote Hoeve en omgeving,Beschermd cultuurhistorisch landschap,1944/02/02,5.077,51.137,Meerhout
Parochiekerk Sint-Trudo: kerkhof,Beschermd cultuurhistorisch landschap,1976/06/11,5.079,51.131,Meerhout
Liefkenshoeve en omgeving,Beschermd stads- of dorpsgezicht,1978/06/16,5.065,51.119,Meerhout
Haanvense windmolen en omgeving,Beschermd stads- of dorpsgezicht,1981/05/20,5.053,51.117,Meerhout
"Parochiekerk Onze-Lieve-Vrouw, kerkhof en pastorie",Beschermd stads- of dorpsgezicht,2009/06/11,5.098,51.113,Meerhout
Burgerhuis De Zwarte Adelaar met tuin en omgeving van herenhuis Drossaart,Beschermd stads- of dorpsgezicht,1986/07/15,5.790,51.095,Maaseik
"Burgerhuizen, apotheek en stadshuis met omgeving",Beschermd stads- of dorpsgezicht,1986/07/25,5.792,51.095,Maaseik
Stadshoeve in Maasstijl met omgeving,Beschermd stads- of dorpsgezicht,1990/02/06,5.787,51.097,Maaseik
Burgerhuizen In den Prince van Luyck en De Stad Amsterdam,Beschermd stads- of dorpsgezicht,1985/11/25,5.791,51.095,Maaseik
Parochiekerk Sint-Lambertus: kerkhof,Beschermd stads- of dorpsgezicht,1998/02/13,5.705,51.088,Maaseik
Marktplein met dubbele rij lindebomen,Beschermd cultuurhistorisch landschap,1940/03/08,5.792,51.095,Maaseik
De Sloot,Beschermd cultuurhistorisch landschap,1974/03/18,5.798,51.081,Maaseik
Natuurgebied rond de Bosbeek,Beschermd cultuurhistorisch landschap,1985/03/28,5.735,51.092,Maaseik
Watermolen Kleeskensmolen met omgeving,Beschermd stads- of dorpsgezicht,1986/07/25,5.700,51.085,Maaseik
"Parochiekerk Sint-Dionysius, gedenktekens en burgerhuis met omgeving",Beschermd stads- of dorpsgezicht,1981/09/08,5.655,51.069,Maaseik
Watermolen Dorpermolen met omgeving,Beschermd stads- of dorpsgezicht,1981/09/08,5.654,51.068,Maaseik
Hoeve De Drie Marieën,Beschermd stads- of dorpsgezicht,1983/05/11,5.795,51.094,Maaseik
Stadscentrum Maaseik,Beschermd stads- of dorpsgezicht,1991/12/16,5.791,51.094,Maaseik
Watermolen Langerenmolen met omgeving,Beschermd stads- of dorpsgezicht,1987/01/21,5.718,51.087,Maaseik
Watermolen Neermolen met omgeving,Beschermd stads- of dorpsgezicht,1988/06/02,5.707,51.089,Maaseik
Watermolen Leverenmolen: molenaarswoning en omgeving,Beschermd stads- of dorpsgezicht,1993/10/20,5.682,51.081,Maaseik
Watermolen Volmolen met omgeving,Beschermd stads- of dorpsgezicht,1993/11/18,5.673,51.077,Maaseik
Molensite Wurfeldermolen,Beschermd stads- of dorpsgezicht,1993/12/16,5.758,51.093,Maaseik
Sint-Harlindis en Relindiskapel en Sint-Willibrordusput: omgeving,Beschermd stads- of dorpsgezicht,2000/12/08,5.805,51.101,Maaseik
Langgestrekte hoeve: landelijke omgeving met kasseiweg en wegkapel,Beschermd stads- of dorpsgezicht,2005/05/12,5.236,51.089,Beringen
Sint-Antoniuskapel van 1680,Beschermd stads- of dorpsgezicht,1993/07/06,5.248,51.089,Beringen
Kapel van Broekhoven,Beschermd cultuurhistorisch landschap,1976/08/10,5.227,51.044,Beringen
Watermolen Stalse Molen: omgeving,Beschermd stads- of dorpsgezicht,1994/12/28,5.246,51.064,Beringen
Parochiaal complex Sint-Theodardus: omgeving,Beschermd stads- of dorpsgezicht,1985/01/24,5.221,51.076,Beringen
Kolenhaven,Beschermd stads- of dorpsgezicht,1993/12/22,5.196,51.069,Beringen
Kioskplein en directeurswoning met omgevend park,Beschermd stads- of dorpsgezicht,1981/09/08,5.219,51.070,Beringen
Koerselse Heide en vallei van de Zwarte Beek,Beschermd cultuurhistorisch landschap,1987/03/30,5.312,51.088,Beringen
Pastorie Sint-Martinusparochie: omgeving,Beschermd stads- of dorpsgezicht,1996/07/08,5.373,51.029,Houthalen-Helchteren
Hoeve Claes en omgeving,Beschermd stads- of dorpsgezicht,1997/02/17,5.349,51.043,Houthalen-Helchteren
Kasteel Ter Dolen: omgeving,Beschermd cultuurhistorisch landschap,1982/06/30,5.391,51.065,Houthalen-Helchteren
Laambeekvallei,Erfgoedlandschap,2018/07/04,5.460,51.007,Houthalen-Helchteren
Windmolen De Hoop met omgeving,Beschermd stads- of dorpsgezicht,1978/02/21,5.767,51.072,Dilsen-Stokkem
Hoeve De Licht met omgeving,Beschermd stads- of dorpsgezicht,1979/10/16,5.716,51.040,Dilsen-Stokkem
Windmolen De Wachter met omgeving,Beschermd stads- of dorpsgezicht,1982/04/19,5.725,51.039,Dilsen-Stokkem
Gemeentehuis Rotem en onderwijzerswoning,Beschermd stads- of dorpsgezicht,1990/02/09,5.736,51.052,Dilsen-Stokkem
Dorpskern Elen,Beschermd stads- of dorpsgezicht,2004/02/12,5.759,51.066,Dilsen-Stokkem
Wijk Tivoli,Beschermd stads- of dorpsgezicht,2004/04/30,5.718,51.020,Dilsen-Stokkem
Afspanning en paardenstal,Beschermd stads- of dorpsgezicht,2004/04/30,5.720,51.020,Dilsen-Stokkem
Erfgoedlandschap Elerweerd,Erfgoedlandschap,2018/03/19,5.757,51.059,Dilsen-Stokkem
Oude dorpskern Dilsen,Beschermd stads- of dorpsgezicht,1992/12/14,5.736,51.033,Dilsen-Stokkem
Parochiekerk Sint-Lucia met kerkhof,Beschermd stads- of dorpsgezicht,1985/11/06,5.044,51.030,Tessenderlo
Windmolen Schaliënmolen met omgeving,Beschermd stads- of dorpsgezicht,1981/10/23,5.022,51.024,Tessenderlo
Kerkhoeve met tiendschuur en omgeving,Beschermd stads- of dorpsgezicht,1983/03/02,5.070,51.069,Tessenderlo
Galgenberg,Beschermd cultuurhistorisch landschap,1984/06/22,5.331,51.048,Heusden-Zolder
Domein van Terlamen en Bolderberg,Beschermd cultuurhistorisch landschap,1987/02/09,5.277,50.999,Heusden-Zolder
Parochiekerk Sint-Vincentius: kerkhof,Beschermd stads- of dorpsgezicht,1996/08/05,5.314,51.023,Heusden-Zolder
Witherenpastorie Woutershof met omgeving,Beschermd stads- of dorpsgezicht,1985/11/06,5.322,51.026,Heusden-Zolder
Domein van Obbeek: omgeving,Beschermd stads- of dorpsgezicht,2004/06/11,5.261,51.022,Heusden-Zolder
Sociale woonwijk Mariëndaalplaats,Beschermd stads- of dorpsgezicht,2003/12/04,5.055,50.982,Diest
Begijnhof: gebouwencomplex met omgeving,Beschermd cultuurhistorisch landschap,1939/02/20,5.061,50.987,Diest
Graanmarkt en Henri Verstappenplein,Beschermd stads- of dorpsgezicht,2003/12/04,5.055,50.984,Diest
Watermolen Ezeldijkmolen: omgeving,Beschermd stads- of dorpsgezicht,2003/12/04,5.057,50.989,Diest
Bogaardenklooster: site,Beschermd stads- of dorpsgezicht,2003/12/04,5.057,50.988,Diest
Grote Markt en omgeving,Beschermd stads- of dorpsgezicht,2003/12/04,5.051,50.985,Diest
Sint-Elisabethgasthuis met omgeving,Beschermd stads- of dorpsgezicht,1986/10/13,5.052,50.986,Diest
Erfgoedlandschap Citadel,Erfgoedlandschap,2015/11/20,5.044,50.983,Diest
Ensemble Demerstraat en Refugiestraat,Beschermd stads- of dorpsgezicht,2003/12/04,5.049,50.987,Diest
Pastorie Onze-Lieve-Vrouwparochie: tuin,Beschermd stads- of dorpsgezicht,2003/12/04,5.054,50.989,Diest
Kapel Sint-Anna en omgeving,Beschermd cultuurhistorisch landschap,1951/07/12,5.153,50.995,Lummen
Kapel Onze-Lieve-Vrouw van de Beukeboom en omgeving,Beschermd cultuurhistorisch landschap,1951/07/12,5.176,50.987,Lummen
Watermolen Kleine Molen en omgeving,Beschermd stads- of dorpsgezicht,1995/05/29,5.183,50.978,Lummen
Groeve Hermans,Beschermd cultuurhistorisch landschap,1994/05/05,5.597,51.008,As
"Sint-Aldegondiskerk met kerkhof, omheiningsmuur en grafkruisen",Beschermd cultuurhistorisch landschap,1948/05/31,5.586,51.009,As
Watermolen Oude Theunissenmolen met omgeving,Beschermd stads- of dorpsgezicht,1993/11/18,5.588,51.017,As
Watermolen 't Mieleke: omgeving,Beschermd stads- of dorpsgezicht,1995/05/29,5.581,51.010,As
Station As: omgeving,Beschermd stads- of dorpsgezicht,1996/03/19,5.601,51.005,As
Steenkoolterrils van Waterschei,Beschermd cultuurhistorisch landschap,1999/06/11,5.547,51.010,As
Vallei van de Dorpsbeek,Beschermd cultuurhistorisch landschap,1993/08/26,5.529,50.967,Genk
Watermolen Slagmolen met omgeving,Beschermd stads- of dorpsgezicht,1995/05/29,5.473,50.960,Genk
Natuurreservaat De Maten: fase 2 (uitgesloten vijvers),Beschermd cultuurhistorisch landschap,1976/01/21,5.447,50.950,Genk
Provinciaal Domein Bokrijk,Beschermd cultuurhistorisch landschap,1947/02/12,5.414,50.963,Genk
Natuurreservaat De Maten: fase 1,Beschermd cultuurhistorisch landschap,1975/08/21,5.452,50.950,Genk
Parochiekerk Sint-Monulfus en -Gondulfus: omgeving,Beschermd stads- of dorpsgezicht,2003/03/03,5.701,50.961,Maasmechelen
Pastorie Sint-Jorisparochie met omgeving,Beschermd stads- of dorpsgezicht,1980/07/18,5.719,50.941,Maasmechelen
Dorpskern Leut,Beschermd stads- of dorpsgezicht,1996/07/05,5.737,50.992,Maasmechelen
Kasteel Vilain XIIII met park,Beschermd cultuurhistorisch landschap,1991/04/24,5.748,50.994,Maasmechelen
Kasteel Vilain XIIII: kasteel en omliggend park,Beschermd cultuurhistorisch landschap,1953/08/13,5.743,50.995,Maasmechelen
"Pastorie Sint-Christoffelparochie, kerkhof en restanten kerk Sint-Christoffel",Beschermd stads- of dorpsgezicht,2001/12/21,5.683,50.939,Maasmechelen
Het Welleke,Beschermd cultuurhistorisch landschap,1981/06/12,5.388,50.983,Zonhoven
Vranckenschans met omgeving,Beschermd stads- of dorpsgezicht,1981/04/13,5.339,50.979,Zonhoven
De Holsteen,Beschermd cultuurhistorisch landschap,1967/09/11,5.427,50.995,Zonhoven
Kapel van de Heuven: kapelhof,Beschermd stads- of dorpsgezicht,1978/06/16,5.369,50.987,Zonhoven
Huis De Franse Kroon met omgeving,Beschermd stads- of dorpsgezicht,1987/04/21,5.368,50.995,Zonhoven
Slangebeekbronnen,Beschermd cultuurhistorisch landschap,1989/11/30,5.409,50.992,Zonhoven
Militair Domein de Molenheide,Beschermd cultuurhistorisch landschap,1995/02/23,5.429,50.991,Zonhoven
Kapel Onze-Lieve-Vrouw van Ten Eikenen met omgeving,Beschermd cultuurhistorisch landschap,1971/09/08,5.364,51.003,Zonhoven
Rotemse molen en omgeving,Beschermd stads- of dorpsgezicht,2005/05/30,5.093,50.929,Halen
Gesloten hoeve met omgeving,Beschermd stads- of dorpsgezicht,1986/06/12,5.124,50.926,Halen
Laathof en omgeving,Beschermd cultuurhistorisch landschap,1975/11/10,5.105,50.941,Halen
Hoeve en poortgebouw abdij Mariëndal met omgeving,Beschermd stads- of dorpsgezicht,1994/01/11,5.097,50.929,Halen
Boerenburgerhuis met tuin,Beschermd stads- of dorpsgezicht,1982/03/29,5.115,50.948,Halen
Kartuizerklooster Sint-Jansberg met omgeving,Beschermd stads- of dorpsgezicht,1978/03/01,5.093,50.971,Halen
"Het Geesthuys: woning, park, omwalling en weilanden",Beschermd stads- of dorpsgezicht,1994/10/12,5.084,50.983,Halen
Sterrebos,Beschermd cultuurhistorisch landschap,1993/07/09,5.259,50.922,Hasselt
Abdij van Herkenrode en omgeving,Beschermd cultuurhistorisch landschap,1974/12/05,5.285,50.955,Hasselt
Gesloten vakwerkhoeve: omgeving met wegkapel,Beschermd stads- of dorpsgezicht,2004/02/03,5.327,50.904,Hasselt
Gesloten hoeve: wijdere agrarische omgeving,Beschermd stads- of dorpsgezicht,2004/03/04,5.250,50.933,Hasselt
Langgestrekte vakwerkhoeve: omgeving,Beschermd stads- of dorpsgezicht,2009/06/15,5.298,50.942,Hasselt
Vakwerkhoeve met losse bestanddelen: omgeving met stal en bakhuis,Beschermd stads- of dorpsgezicht,2009/06/15,5.329,50.896,Hasselt
Vakwerkhoeve met losse bestanddelen: omgeving,Beschermd stads- of dorpsgezicht,2009/06/15,5.341,50.901,Hasselt
U-vormige vakwerkhoeve: omgeving,Beschermd stads- of dorpsgezicht,2009/06/15,5.259,50.913,Hasselt
U-vormige vakwerkhoeve Busselkenswinning: omgeving,Beschermd stads- of dorpsgezicht,2009/06/15,5.243,50.940,Hasselt
Vakwerkhoeve met losse bestanddelen en waterput: omgeving,Beschermd stads- of dorpsgezicht,2009/06/15,5.245,50.916,Hasselt
Gesloten hoeve In De Klok: omgeving,Beschermd stads- of dorpsgezicht,2009/06/15,5.354,50.884,Hasselt
Watermolen op de Herk met omgeving,Beschermd stads- of dorpsgezicht,1979/03/13,5.249,50.918,Hasselt
Kapel Onze-Lieve-Vrouw Troost der Kleine Kinderen met omgeving,Beschermd stads- of dorpsgezicht,1979/03/13,5.249,50.947,Hasselt
Het Beluikske met omgeving,Beschermd stads- of dorpsgezicht,1983/07/28,5.337,50.932,Hasselt
Parochiekerk Sint-Martinus met omgeving,Beschermd stads- of dorpsgezicht,1985/11/28,5.251,50.917,Hasselt
Semi-gesloten hoeve Spaans Huis met omgeving,Beschermd stads- of dorpsgezicht,1987/01/12,5.379,50.934,Hasselt
Woning De Drossaerd met omgeving,Beschermd stads- of dorpsgezicht,1993/10/26,5.305,50.944,Hasselt
Notariswoning Smeets: binnenhof en bijgebouwen,Beschermd stads- of dorpsgezicht,2002/10/21,5.343,50.931,Hasselt
Koninklijk Atheneum: omgeving,Beschermd stads- of dorpsgezicht,2002/10/22,5.342,50.929,Hasselt
Burgerhuis Heusden: tuin met bijgebouwen,Beschermd stads- of dorpsgezicht,2002/11/04,5.335,50.930,Hasselt
Burgerhuis De Engelkes: tuin,Beschermd stads- of dorpsgezicht,2002/11/04,5.340,50.928,Hasselt
Stadswoning De Gulden Put: binnenhof en bijgebouwen,Beschermd stads- of dorpsgezicht,2002/11/04,5.336,50.930,Hasselt
Neoclassicistisch herenhuis met dienstvleugels: omgeving,Beschermd stads- of dorpsgezicht,2002/11/04,5.332,50.932,Hasselt
Vakwerkhoeve met losse bestanddelen: omgeving,Beschermd stads- of dorpsgezicht,2005/02/14,5.300,50.903,Hasselt
Semi-gesloten vakwerkhoeve: omgeving,Beschermd stads- of dorpsgezicht,2008/06/25,5.331,50.900,Hasselt
Vakwerkhoeve: omgeving,Beschermd stads- of dorpsgezicht,2009/06/15,5.241,50.956,Hasselt
Vakwerkhoeve: omgeving,Beschermd stads- of dorpsgezicht,2009/06/15,5.303,50.943,Hasselt
Semi-gesloten vakwerkhoeve: omgeving,Beschermd stads- of dorpsgezicht,2009/06/15,5.349,50.884,Hasselt
Pastorie Onze-Lieve-Vrouwparochie met omgeving,Beschermd cultuurhistorisch landschap,1943/12/20,5.570,50.931,Zutendaal
Watermolen Suetendaelmolen met omgeving,Beschermd stads- of dorpsgezicht,1995/05/29,5.545,50.916,Zutendaal
Vakwerkhoeve: omgeving,Beschermd stads- of dorpsgezicht,2002/02/28,5.218,50.955,Herk-de-Stad
Hoeve Amandinahuis: omgeving,Beschermd stads- of dorpsgezicht,2002/05/23,5.204,50.906,Herk-de-Stad
Oude boomkwekerij De Pierpont,Beschermd cultuurhistorisch landschap,1987/03/23,5.169,50.935,Herk-de-Stad
Vakwerkhoeve: omgeving,Beschermd stads- of dorpsgezicht,2005/02/01,5.160,50.935,Herk-de-Stad
Langgestrekte vakwerkhoeve: omgeving,Beschermd stads- of dorpsgezicht,2008/12/24,5.218,50.950,Herk-de-Stad
Watermolen Nieuwe Molen: omgeving,Beschermd stads- of dorpsgezicht,2008/12/24,5.203,50.931,Herk-de-Stad
Langgestrekte vakwerkhoeve: omgeving,Beschermd stads- of dorpsgezicht,2008/12/24,5.215,50.959,Herk-de-Stad
Vakwerkhoeve met losse bestanddelen: omgeving,Beschermd stads- of dorpsgezicht,2008/12/24,5.146,50.937,Herk-de-Stad
Vierkantshoeve: stenen componenten met erf,Beschermd stads- of dorpsgezicht,2008/12/24,5.201,50.907,Herk-de-Stad
Langgestrekte vakwerkhoeve: omgeving,Beschermd stads- of dorpsgezicht,2008/12/24,5.185,50.923,Herk-de-Stad
Langgestrekte vakwerkhoeve met waterput: omgeving,Beschermd stads- of dorpsgezicht,2008/12/24,5.182,50.931,Herk-de-Stad
Vakwerkhoeve met waterput: omgeving,Beschermd stads- of dorpsgezicht,2008/12/24,5.214,50.915,Herk-de-Stad
Langgestrekte vakwerkhoeve: omgeving,Beschermd stads- of dorpsgezicht,2008/12/24,5.188,50.900,Herk-de-Stad
Vakwerkhoeve met losse bestanddelen: omgeving,Beschermd stads- of dorpsgezicht,2008/12/24,5.194,50.905,Herk-de-Stad
Vakwerkhoeve met losse bestanddelen: omgeving,Beschermd stads- of dorpsgezicht,2008/12/24,5.223,50.921,Herk-de-Stad
Vakwerkhoeve met losse bestanddelen: omgeving,Beschermd stads- of dorpsgezicht,2008/12/24,5.221,50.910,Herk-de-Stad
Hoeve Bouquetwinning met omgeving,Beschermd stads- of dorpsgezicht,1981/09/08,5.393,50.903,Diepenbeek
Watermolen Rooiermolen met omgeving,Beschermd stads- of dorpsgezicht,1983/02/03,5.399,50.929,Diepenbeek
Kasteel van Diepenbeek: kasteeldomein,Beschermd stads- of dorpsgezicht,2002/06/25,5.420,50.912,Diepenbeek
Watermolen Sapittelmolen met omgeving,Beschermd stads- of dorpsgezicht,1983/02/03,5.434,50.908,Diepenbeek
Langgestrekte vakwerkhoeve: omgeving,Beschermd stads- of dorpsgezicht,2009/06/15,5.443,50.903,Diepenbeek
Langgestrekte vakwerkhoeve Den Vrouwenhof: omgeving,Beschermd stads- of dorpsgezicht,2009/06/15,5.398,50.904,Diepenbeek
Vakwerkhoeve met losse bestanddelen Voswinning: omgeving,Beschermd stads- of dorpsgezicht,2009/06/15,5.423,50.891,Diepenbeek
Langgestrekte vakwerkhoeve: omgeving,Beschermd stads- of dorpsgezicht,2009/06/15,5.409,50.910,Diepenbeek
Langgestrekte vakwerkhoeve: omgeving,Beschermd stads- of dorpsgezicht,2009/06/15,5.443,50.898,Diepenbeek
Vakwerkhoeve met losse bestanddelen: aanhorigheden en omgeving,Beschermd stads- of dorpsgezicht,2009/06/15,5.380,50.889,Diepenbeek
Vakwerkhoeve met losse bestanddelen: omgeving,Beschermd stads- of dorpsgezicht,2009/06/15,5.455,50.912,Diepenbeek
Vakwerkhoeve met losse bestanddelen Merlemont: omgeving,Beschermd stads- of dorpsgezicht,2009/06/15,5.406,50.883,Diepenbeek
Semi-gesloten hoevecomplex Groot Terherken: hoevecomponenten en omgeving,Beschermd stads- of dorpsgezicht,2009/06/15,5.387,50.884,Diepenbeek
U-vormige vakwerkhoeve: omgeving,Beschermd stads- of dorpsgezicht,2009/06/15,5.430,50.918,Diepenbeek
Vakwerkhoeve: omgeving,Beschermd stads- of dorpsgezicht,2009/06/15,5.370,50.898,Diepenbeek
Kasteel Pietersheim: domein,Beschermd cultuurhistorisch landschap,1983/05/11,5.667,50.900,Lanaken
Parochiekerk Sint-Lambertus: kerkhof,Beschermd stads- of dorpsgezicht,1999/10/28,5.688,50.907,Lanaken
L-Vormige hoeve van 1818 met omgeving,Beschermd stads- of dorpsgezicht,2001/04/27,5.686,50.906,Lanaken
L-vormige hoeve van 1865 met omgeving,Beschermd stads- of dorpsgezicht,2001/04/27,5.686,50.918,Lanaken
"Gesloten hoeve: overige hoevegebouwen, lindeboom en omgeving",Beschermd stads- of dorpsgezicht,2002/05/23,5.669,50.896,Lanaken
Watermolen Heidemolen met omgeving,Beschermd stads- of dorpsgezicht,2005/06/21,5.649,50.901,Lanaken
"Kasteel van Hocht: neerhof, park, dreven en omliggende weilanden en boomgaarden",Beschermd cultuurhistorisch landschap,1976/11/29,5.685,50.898,Lanaken
Kapel Slag van Lafelt met omgeving,Beschermd cultuurhistorisch landschap,1975/04/17,5.615,50.861,Lanaken
Boerenwoning De Hoek met omgeving,Beschermd stads- of dorpsgezicht,1981/01/29,5.703,50.923,Lanaken
Kapel Sint-Petronella met omgeving,Beschermd stads- of dorpsgezicht,1981/10/23,5.685,50.915,Lanaken
Oude kern Rekem,Beschermd stads- of dorpsgezicht,1994/09/28,5.704,50.924,Lanaken
Motte In de Burg met omgeving,Beschermd stads- of dorpsgezicht,1978/03/01,5.610,50.881,Lanaken
Gehucht Smeermaas met aansluitend gedeelte Zuid-Willemsvaart,Beschermd stads- of dorpsgezicht,2002/11/04,5.676,50.884,Lanaken
Kasteel Hogemeyer: landgoed,Beschermd stads- of dorpsgezicht,2001/02/23,4.994,50.896,Kortenaken
Kerkhof en pastorietuin,Beschermd stads- of dorpsgezicht,2001/02/23,4.994,50.887,Kortenaken
Dorpskern Miskom,Beschermd stads- of dorpsgezicht,2001/11/22,5.012,50.895,Kortenaken
Molenbemden,Beschermd cultuurhistorisch landschap,1991/04/24,5.526,50.823,Bilzen
Groenendaal-Zangerhei,Beschermd cultuurhistorisch landschap,2001/06/29,5.555,50.886,Bilzen
Kasteel van Schoonbeek met dreef en park,Beschermd cultuurhistorisch landschap,1958/03/05,5.476,50.898,Bilzen
Hoeven De Zon en De Maan met omgeving,Beschermd stads- of dorpsgezicht,1999/12/28,5.473,50.890,Bilzen
Watermolen Bilsermolen met omgeving,Beschermd stads- of dorpsgezicht,1983/03/02,5.517,50.867,Bilzen
Eclectisch herenhuis Pétry met tuin: tuin,Beschermd stads- of dorpsgezicht,2000/12/08,5.518,50.872,Bilzen
Dekenij met oranjerie: tuin,Beschermd stads- of dorpsgezicht,2001/04/19,5.519,50.871,Bilzen
Hospitaal De Wandeling: omgeving,Beschermd stads- of dorpsgezicht,2001/04/27,5.513,50.871,Bilzen
Gemeentehuis Eigenbilzen en gemeenteschool: omgeving,Beschermd stads- of dorpsgezicht,2002/06/14,5.574,50.876,Bilzen
"Gesloten hoeve: dienstgebouwen, dwarsschuur en omgeving",Beschermd stads- of dorpsgezicht,1999/06/22,5.558,50.833,Bilzen
Hoeve Blondeswinning: omgeving,Beschermd stads- of dorpsgezicht,2011/08/24,5.551,50.830,Bilzen
Sint-Quintinuskerk: omgeving,Beschermd stads- of dorpsgezicht,1996/07/25,5.609,50.846,Bilzen
Gesloten hoeve: omgeving,Beschermd stads- of dorpsgezicht,1999/06/22,5.550,50.838,Bilzen
Hoeve gedateerd 1820: omgeving,Beschermd stads- of dorpsgezicht,1999/12/28,5.552,50.847,Bilzen
"Pastorie Sint-Petrusparochie: omgeving, stegen en Sint-Berthiliabron",Beschermd stads- of dorpsgezicht,1999/06/10,5.577,50.847,Bilzen
Sint-Rochuskapel: omgeving,Beschermd stads- of dorpsgezicht,1999/06/10,5.538,50.881,Bilzen
Kasteel Edelhof: park,Beschermd stads- of dorpsgezicht,1996/08/05,5.527,50.891,Bilzen
Herenhuis Claes met omgeving,Beschermd stads- of dorpsgezicht,1980/01/04,5.519,50.870,Bilzen
Burcht van Rummen,Beschermd cultuurhistorisch landschap,2017/06/06,5.153,50.892,Geetbets
Kapel Sint-Rochus met winterlinde en omgeving,Beschermd stads- of dorpsgezicht,1985/08/19,5.107,50.895,Geetbets
Watermolen Lutzemolen met omgeving,Beschermd stads- of dorpsgezicht,1994/04/18,5.143,50.876,Geetbets
Watermolen gedateerd 1672 met omgeving,Beschermd stads- of dorpsgezicht,1996/02/02,5.122,50.891,Geetbets
Kasteel van Rummen met omgeving,Beschermd stads- of dorpsgezicht,1995/04/07,5.143,50.900,Geetbets
Kerkhof en pastorietuin Heilige Petrus en Paulusparochie,Beschermd stads- of dorpsgezicht,2000/12/08,5.116,50.890,Geetbets
Watermolen Nieuwe Molen met omgeving,Beschermd stads- of dorpsgezicht,1987/01/12,5.285,50.900,Alken
Semi-gesloten hoeve: omgeving,Beschermd stads- of dorpsgezicht,2004/06/09,5.261,50.897,Alken
Gesloten hoeve: landelijke omgeving,Beschermd stads- of dorpsgezicht,2004/12/29,5.315,50.883,Alken
Hoeve Timmermans: omgeving,Beschermd stads- of dorpsgezicht,2001/04/27,5.350,50.867,Alken
Boerenwoning: omgeving,Beschermd stads- of dorpsgezicht,2002/06/14,5.345,50.877,Alken
Hoeve De Oude Vlieg: parkje,Beschermd stads- of dorpsgezicht,2002/11/04,5.275,50.880,Alken
Semi-gesloten hoeve: omgeving,Beschermd stads- of dorpsgezicht,2003/12/04,5.272,50.867,Alken
Semi-gesloten hoeve: omgeving,Beschermd stads- of dorpsgezicht,2003/11/13,5.284,50.885,Alken
Hoeve in L-vorm: omgeving,Beschermd stads- of dorpsgezicht,2004/02/02,5.306,50.864,Alken
Restant gesloten hoeve met omgeving,Beschermd stads- of dorpsgezicht,2003/12/10,5.282,50.875,Alken
Vakwerkhoeve: omgeving,Beschermd stads- of dorpsgezicht,2004/02/02,5.287,50.858,Alken
Langgestrekte hoeve: agrarische omgeving,Beschermd stads- of dorpsgezicht,2004/03/04,5.330,50.871,Alken
Gesloten hoeve: omgeving,Beschermd stads- of dorpsgezicht,2004/06/09,5.274,50.876,Alken
Langgestrekte hoeve: omgeving,Beschermd stads- of dorpsgezicht,2004/06/09,5.260,50.872,Alken
Hoeven: omgeving,Beschermd stads- of dorpsgezicht,2004/06/09,5.276,50.879,Alken
Sint-Joriskapel met omgeving,Beschermd stads- of dorpsgezicht,1982/12/15,5.276,50.868,Alken
Hoeves: omgeving,Beschermd stads- of dorpsgezicht,2004/12/29,5.326,50.879,Alken
Semi-gesloten hoeve: omgeving,Beschermd stads- of dorpsgezicht,2004/06/09,5.296,50.897,Alken
Gesloten hoeve: omgeving,Beschermd stads- of dorpsgezicht,2001/06/14,5.329,50.880,Alken
Gesloten hoeve Het Paenhuys: omgeving,Beschermd stads- of dorpsgezicht,2002/07/01,5.241,50.877,Nieuwerkerken
Pastorie Sint-Laurentiusparochie met omgeving,Beschermd stads- of dorpsgezicht,1979/08/21,5.240,50.875,Nieuwerkerken
Kasteeldomein van Nieuwerkerken,Beschermd stads- of dorpsgezicht,1985/11/06,5.202,50.869,Nieuwerkerken
Muggenbos,Beschermd cultuurhistorisch landschap,1993/07/09,5.200,50.865,Nieuwerkerken
Kasteel en kasteelhoeve: omgeving,Beschermd cultuurhistorisch landschap,1977/11/30,5.451,50.837,Hoeselt
Watermolen op de Demer met omgeving,Beschermd stads- of dorpsgezicht,1986/10/13,5.498,50.843,Hoeselt
Hoeve Hof ter Poorten met omgeving,Beschermd stads- of dorpsgezicht,1987/01/12,5.495,50.827,Hoeselt
Parochiekerk Sint-Stephanus: omgeving,Beschermd stads- of dorpsgezicht,2000/04/19,5.488,50.850,Hoeselt
Kasteel Ter Borch met omgeving,Beschermd stads- of dorpsgezicht,2001/03/29,5.487,50.851,Hoeselt
Parochiekerk Sint-Domitianus: kerkhof,Beschermd stads- of dorpsgezicht,2001/04/27,5.480,50.833,Hoeselt
De Mot met omgeving,Beschermd stads- of dorpsgezicht,1982/11/10,5.485,50.852,Hoeselt
Boerenburgerhuis met tuin,Beschermd stads- of dorpsgezicht,1981/11/06,5.430,50.840,Kortessem
Watermolen Luimertingenmolen: omgeving,Beschermd stads- of dorpsgezicht,2008/04/15,5.382,50.879,Kortessem
Hoeve: omgeving,Beschermd stads- of dorpsgezicht,2008/04/15,5.372,50.849,Kortessem
Gesloten hoeve: dwarsschuur en omgeving,Beschermd stads- of dorpsgezicht,2008/04/15,5.394,50.875,Kortessem
Hoeve Valik: omgeving met knechtjeshoeve,Beschermd stads- of dorpsgezicht,2008/04/15,5.387,50.874,Kortessem
Knechtjeshoeve Valikhoeve,Beschermd stads- of dorpsgezicht,2008/04/15,5.391,50.875,Kortessem
Vakwerkhoeve: omgeving,Beschermd stads- of dorpsgezicht,2008/04/15,5.426,50.877,Kortessem
Vakwerkhoeve met bakhuis: omgeving,Beschermd stads- of dorpsgezicht,2008/04/15,5.428,50.866,Kortessem
Langgestrekte hoeve: omgeving,Beschermd stads- of dorpsgezicht,2008/04/15,5.419,50.849,Kortessem
Kasteel de Fauconval: kasteelpark,Beschermd stads- of dorpsgezicht,1994/10/05,5.390,50.860,Kortessem
Pastorie Sint-Agapitusparochie en kerkhof,Beschermd stads- of dorpsgezicht,1996/08/05,5.429,50.840,Kortessem
"Kasteel en hoeve Dessener en hoeve Schoenwinckel: omgeving met dreven, vijvers en toegangsweg",Beschermd stads- of dorpsgezicht,2008/12/24,5.409,50.857,Kortessem
"Kasteel de Donnéa: omgeving met moestuin, boomgaard en bospark",Beschermd stads- of dorpsgezicht,2002/06/14,5.401,50.837,Kortessem
Vakwerkhoeve: omgeving,Beschermd stads- of dorpsgezicht,2004/03/04,5.372,50.870,Kortessem
Gesloten hoeve: omgeving van de dwarsschuur,Beschermd stads- of dorpsgezicht,2008/04/15,5.396,50.863,Kortessem
Vakwerkhoeve: varkensstallen en omgeving,Beschermd stads- of dorpsgezicht,2008/04/15,5.366,50.876,Kortessem
Begraafplaats met kerkhofkapel,Beschermd stads- of dorpsgezicht,1986/07/15,5.407,50.840,Kortessem
Kasteel Printhagen: kasteel en kasteelhoeve met omgeving,Beschermd stads- of dorpsgezicht,1986/06/12,5.364,50.867,Kortessem
"Onze-Lieve-Vrouwkapel, hoeve Boswinning en omgeving",Beschermd stads- of dorpsgezicht,1994/05/09,5.080,50.842,Zoutleeuw
Citadel van Zoutleeuw,Beschermd stads- of dorpsgezicht,1987/01/12,5.101,50.828,Zoutleeuw
Kasseiweg Koepoortstraat,Beschermd stads- of dorpsgezicht,1987/01/12,5.094,50.823,Zoutleeuw
Sint-Laurentiuskapel met omgeving,Beschermd stads- of dorpsgezicht,1993/11/30,5.086,50.821,Zoutleeuw
Grote Markt en omgeving,Beschermd cultuurhistorisch landschap,1973/10/18,5.103,50.833,Zoutleeuw
Stadskern Zoutleeuw,Beschermd stads- of dorpsgezicht,1994/06/22,5.103,50.833,Zoutleeuw
"Parochiekerk Sint-Martinus, pastorie, kosterswoning en omgeving",Beschermd stads- of dorpsgezicht,1987/01/12,5.102,50.810,Zoutleeuw
Pastorie Sint-Odulphusparochie en omgeving,Beschermd stads- of dorpsgezicht,1994/06/07,5.128,50.823,Zoutleeuw
Kasteel van Dormaal en watermolen met omgeving,Beschermd stads- of dorpsgezicht,1996/07/18,5.101,50.806,Zoutleeuw
Watermolen Staeyenmolen en omgeving,Beschermd stads- of dorpsgezicht,1997/10/16,5.162,50.813,Sint-Truiden
Begijnhof: conventhuis,Beschermd cultuurhistorisch landschap,1974/04/12,5.194,50.821,Sint-Truiden
Begijnhof: begijnenhuis,Beschermd cultuurhistorisch landschap,1974/04/12,5.194,50.820,Sint-Truiden
Begijnhof: begijnenhuis,Beschermd cultuurhistorisch landschap,1974/04/12,5.193,50.821,Sint-Truiden
Begijnhof: begijnenhuis,Beschermd cultuurhistorisch landschap,1974/04/12,5.193,50.821,Sint-Truiden
Begijnhof: begijnenhuis,Beschermd cultuurhistorisch landschap,1974/04/12,5.193,50.821,Sint-Truiden
Begijnhof: begijnenhuis,Beschermd cultuurhistorisch landschap,1974/04/12,5.193,50.821,Sint-Truiden
Begijnhof: begijnenhuis,Beschermd cultuurhistorisch landschap,1974/04/12,5.193,50.821,Sint-Truiden
Begijnhof: begijnenhuis,Beschermd cultuurhistorisch landschap,1974/04/12,5.193,50.821,Sint-Truiden
Begijnhof: Torenhuis,Beschermd cultuurhistorisch landschap,1974/04/12,5.193,50.821,Sint-Truiden
Begijnhof: begijnenhuis,Beschermd cultuurhistorisch landschap,1974/04/12,5.193,50.821,Sint-Truiden
Begijnhof: begijnenhuis gedateerd 1690,Beschermd cultuurhistorisch landschap,1974/04/12,5.193,50.821,Sint-Truiden
Begijnhof: begijnenhuis,Beschermd cultuurhistorisch landschap,1974/04/12,5.193,50.821,Sint-Truiden
Begijnhof: perceel,Beschermd cultuurhistorisch landschap,1974/04/12,5.193,50.821,Sint-Truiden
Begijnhof: perceel,Beschermd cultuurhistorisch landschap,1974/04/12,5.193,50.821,Sint-Truiden
Begijnhof: hoekperceel,Beschermd cultuurhistorisch landschap,1974/04/12,5.192,50.821,Sint-Truiden
Begijnhof: begijnenhuis,Beschermd cultuurhistorisch landschap,1974/04/12,5.193,50.822,Sint-Truiden
Begijnhof: burgerhuis,Beschermd cultuurhistorisch landschap,1974/04/12,5.193,50.821,Sint-Truiden
Begijnhof: hoekperceel,Beschermd cultuurhistorisch landschap,1974/04/12,5.193,50.821,Sint-Truiden
Begijnhof: perceel,Beschermd cultuurhistorisch landschap,1974/04/12,5.193,50.821,Sint-Truiden
Begijnhof: begijnenhuis,Beschermd cultuurhistorisch landschap,1974/04/12,5.193,50.822,Sint-Truiden
Begijnhof: begijnenhuis,Beschermd cultuurhistorisch landschap,1974/04/12,5.194,50.822,Sint-Truiden
Begijnhof: perceel,Beschermd cultuurhistorisch landschap,1974/04/12,5.194,50.822,Sint-Truiden
Begijnhof: godshuis Heilige Drievuldigheid,Beschermd cultuurhistorisch landschap,1974/04/12,5.194,50.822,Sint-Truiden
Begijnhof: begijnenhuis,Beschermd cultuurhistorisch landschap,1974/04/12,5.195,50.822,Sint-Truiden
Begijnhof: begijnenhuis,Beschermd cultuurhistorisch landschap,1974/04/12,5.195,50.822,Sint-Truiden
Begijnhof: begijnenhuis,Beschermd cultuurhistorisch landschap,1974/04/12,5.195,50.822,Sint-Truiden
Begijnhof: begijnenhuis,Beschermd cultuurhistorisch landschap,1974/04/12,5.195,50.822,Sint-Truiden
Begijnhof: begijnenhuis,Beschermd cultuurhistorisch landschap,1974/04/12,5.195,50.822,Sint-Truiden
Begijnhof: begijnenhuis,Beschermd cultuurhistorisch landschap,1974/04/12,5.194,50.821,Sint-Truiden
Begijnhof: begijnenhuis,Beschermd cultuurhistorisch landschap,1974/04/12,5.195,50.821,Sint-Truiden
Begijnhof: begijnenhuis,Beschermd cultuurhistorisch landschap,1974/04/12,5.195,50.821,Sint-Truiden
Begijnhof: straatje naar infirmerie,Beschermd cultuurhistorisch landschap,1974/04/12,5.194,50.821,Sint-Truiden
Begijnhof: perceel,Beschermd cultuurhistorisch landschap,1974/04/12,5.194,50.821,Sint-Truiden
Begijnhof: conventhuis,Beschermd cultuurhistorisch landschap,1974/04/12,5.194,50.821,Sint-Truiden
Begijnhof: conventhuis,Beschermd cultuurhistorisch landschap,1974/04/12,5.194,50.821,Sint-Truiden
Begijnhof: conventhuis,Beschermd cultuurhistorisch landschap,1974/04/12,5.194,50.821,Sint-Truiden
Begijnhof: hoekhuis gedateerd 1723,Beschermd cultuurhistorisch landschap,1974/04/12,5.194,50.821,Sint-Truiden
Begijnhof: begijnenhuis gedateerd 1722,Beschermd cultuurhistorisch landschap,1974/04/12,5.194,50.821,Sint-Truiden
Begijnhof: begijnenhuis gedateerd 1721,Beschermd cultuurhistorisch landschap,1974/04/12,5.194,50.821,Sint-Truiden
Begijnhof: begijnenhuis,Beschermd cultuurhistorisch landschap,1974/04/12,5.194,50.821,Sint-Truiden
Begijnhof: portierswoning en begijnhofhoeve,Beschermd cultuurhistorisch landschap,1974/04/12,5.194,50.821,Sint-Truiden
"Erfgoedlandschap Dorpengeheel Groot-Gelmen, Engelmanshoeve, Gelinden",Erfgoedlandschap,2011/11/01,5.266,50.763,Sint-Truiden
Parochiekerk Sint-Quintinus: kerkhof,Beschermd stads- of dorpsgezicht,1998/02/13,5.263,50.767,Sint-Truiden
Watermolen Elsbroekmolen met omgeving,Beschermd stads- of dorpsgezicht,1993/11/18,5.160,50.856,Sint-Truiden
Tumulus op het Tomveld met omgeving,Beschermd stads- of dorpsgezicht,1979/03/13,5.243,50.793,Sint-Truiden
Begijnhof: deel van infirmerie,Beschermd cultuurhistorisch landschap,1974/04/12,5.194,50.821,Sint-Truiden
Begijnhof: infirmerie,Beschermd cultuurhistorisch landschap,1974/04/12,5.194,50.821,Sint-Truiden
Begijnhof: perceel,Beschermd cultuurhistorisch landschap,1974/04/12,5.193,50.822,Sint-Truiden
Begijnhof: perceel rond begijnhofkerk,Beschermd cultuurhistorisch landschap,1974/04/12,5.194,50.822,Sint-Truiden
Begijnhof: omgeving pastorie,Beschermd cultuurhistorisch landschap,1974/04/12,5.195,50.820,Sint-Truiden
Begijnhof: pastorie,Beschermd cultuurhistorisch landschap,1974/04/12,5.195,50.820,Sint-Truiden
Korensteeg en gebouwen met omgeving,Beschermd stads- of dorpsgezicht,1981/10/16,5.185,50.816,Sint-Truiden
Basiliek Onze-Lieve-Vrouw-Hemelvaart met omgeving,Beschermd cultuurhistorisch landschap,1973/11/13,5.240,50.858,Sint-Truiden
Watermolen en hoeve Hoog Molen: omgeving,Beschermd cultuurhistorisch landschap,1975/05/27,5.232,50.821,Sint-Truiden
Kasteel van Kerkom met omgeving,Beschermd stads- of dorpsgezicht,1979/10/04,5.183,50.777,Sint-Truiden
Kapel van de Bruine Onze-Lieve-Vrouw met omgeving,Beschermd stads- of dorpsgezicht,1980/08/19,5.167,50.781,Sint-Truiden
Kasteeldomein Terbiest,Beschermd stads- of dorpsgezicht,1981/11/30,5.208,50.828,Sint-Truiden
Kasteel van Schoor met omgeving,Beschermd stads- of dorpsgezicht,1984/06/20,5.123,50.787,Sint-Truiden
Speelhof en omgeving,Beschermd stads- of dorpsgezicht,1986/10/13,5.191,50.824,Sint-Truiden
Watermolen Hornemolen met omgeving,Beschermd stads- of dorpsgezicht,1993/11/18,5.191,50.831,Sint-Truiden
Parochiekerk Onze-Lieve-Vrouw Ten Hemel Opneming met kerkhof,Beschermd stads- of dorpsgezicht,1996/03/09,5.165,50.833,Sint-Truiden
Parochiekerk Onze-Lieve-Vrouw-Bezoeking met omgeving,Beschermd stads- of dorpsgezicht,1996/05/10,5.143,50.819,Sint-Truiden
Stedelijke begraafplaats,Beschermd stads- of dorpsgezicht,2001/11/20,5.194,50.819,Sint-Truiden
Commanderij van Bernissem en omgeving,Beschermd stads- of dorpsgezicht,1982/06/29,5.220,50.828,Sint-Truiden
Abdijsite benedictijnenabdij Sint-Trudo en Academiezaal,Beschermd stads- of dorpsgezicht,1986/07/30,5.188,50.817,Sint-Truiden
Watermolen Grevensmolen en omgeving,Beschermd stads- of dorpsgezicht,1981/04/15,5.168,50.825,Sint-Truiden
Kapel van Guvelingen en kerkhof,Beschermd cultuurhistorisch landschap,1939/02/20,5.187,50.829,Sint-Truiden
Dorpskern Zepperen,Beschermd stads- of dorpsgezicht,1983/07/28,5.247,50.822,Sint-Truiden
Herberg De Zwaan met omgeving,Beschermd stads- of dorpsgezicht,1991/06/14,5.265,50.782,Sint-Truiden
Minderbroedersklooster,Beschermd stads- of dorpsgezicht,1987/01/21,5.186,50.814,Sint-Truiden
Parochiekerk Salvator Mundi: kerkhof,Beschermd stads- of dorpsgezicht,1998/10/01,5.199,50.831,Sint-Truiden
Pastorie Salvator Mundiparochie met omgeving,Beschermd stads- of dorpsgezicht,1978/12/08,5.200,50.832,Sint-Truiden
Mergelontsluitingen van Overbroek,Beschermd cultuurhistorisch landschap,2003/05/20,5.267,50.761,Sint-Truiden
Landhuis Wit Kasteel en omgeving,Beschermd stads- of dorpsgezicht,1980/02/12,5.175,50.779,Sint-Truiden
Donjon van Brustem met omgeving,Beschermd cultuurhistorisch landschap,1956/03/28,5.218,50.802,Sint-Truiden
Kasteel van Kortenbos: omgeving,Beschermd stads- of dorpsgezicht,1985/03/28,5.238,50.859,Sint-Truiden
Begijnhof: franje,Beschermd stads- of dorpsgezicht,2005/05/12,5.195,50.822,Sint-Truiden
Begijnhof: landbouwterrein tussen begijnhof en dreef naar het Speelhof,Beschermd stads- of dorpsgezicht,2005/05/12,5.195,50.826,Sint-Truiden
Begijnhof: begijnenhuis gedateerd 1734,Beschermd cultuurhistorisch landschap,1974/04/12,5.195,50.821,Sint-Truiden
Parochiekerk Sint-Agatha met kerkhof,Beschermd stads- of dorpsgezicht,1987/01/12,5.311,50.818,Wellen
Watermolensite Pexters met omgeving,Beschermd stads- of dorpsgezicht,1993/10/26,5.309,50.815,Wellen
Omhaagde kapelsite met boomgaard,Beschermd stads- of dorpsgezicht,1999/12/10,5.302,50.827,Wellen
Sint-Rochusbrouwerij Hayen-Bomal: omgeving,Beschermd stads- of dorpsgezicht,2001/11/20,5.308,50.840,Wellen
Wellermolen op de Herk met omgeving en hoeve Het Kasteeltje,Beschermd stads- of dorpsgezicht,1993/10/26,5.335,50.838,Wellen
Langgestrekte hoeve: omgeving,Beschermd stads- of dorpsgezicht,2004/03/04,5.324,50.859,Wellen
Dorpskern Ulbeek,Beschermd stads- of dorpsgezicht,2004/06/09,5.309,50.841,Wellen
Hoeve Devries: omgeving,Beschermd stads- of dorpsgezicht,2007/11/23,5.339,50.844,Wellen
Semi-gesloten hoeve: omgeving,Beschermd stads- of dorpsgezicht,2007/11/23,5.354,50.852,Wellen
L-vormige hoeve,Beschermd stads- of dorpsgezicht,2007/11/23,5.324,50.836,Wellen
L-vormige hoeve: agrarische omgeving en hoeve Bunderkuil,Beschermd stads- of dorpsgezicht,2007/11/23,5.354,50.864,Wellen
"Hoeve: versteende delen, erf en tuin",Beschermd stads- of dorpsgezicht,2007/11/23,5.327,50.841,Wellen
Vakwerkhoeve: omgeving en langgestrekte hoeve,Beschermd stads- of dorpsgezicht,2007/11/23,5.322,50.835,Wellen
"Hoeve met losse bestanddelen: bijgebouwen, tuin en agrarische omgeving",Beschermd stads- of dorpsgezicht,2007/11/23,5.308,50.850,Wellen
U-vormige hoeve: omgeving,Beschermd stads- of dorpsgezicht,2007/11/23,5.320,50.846,Wellen
Hoeve: omgeving,Beschermd stads- of dorpsgezicht,2007/11/23,5.326,50.844,Wellen
Dorpskern Orsmaal,Beschermd stads- of dorpsgezicht,2000/06/13,5.062,50.805,Linter
Watermolen Geensmolen met omgeving,Beschermd stads- of dorpsgezicht,1994/03/02,5.047,50.840,Linter
Gesloten hoeve: omgeving,Beschermd stads- of dorpsgezicht,2002/06/14,5.055,50.794,Linter
Restanten gravenburcht: heuvel en gracht,Beschermd stads- of dorpsgezicht,2003/11/13,5.344,50.801,Borgloon
Abdijsite Kolen - Kolenberg,Beschermd cultuurhistorisch landschap,2001/06/29,5.354,50.816,Borgloon
"Rode Hoeve, boswachterswoning, kapel en kruis: omgeving",Beschermd stads- of dorpsgezicht,2003/12/10,5.382,50.785,Borgloon
Parochiekerk Sint-Pieter: kerkhof,Beschermd stads- of dorpsgezicht,2000/12/08,5.400,50.794,Borgloon
Hoeve Martin: agrarische omgeving,Beschermd stads- of dorpsgezicht,2004/12/25,5.395,50.806,Borgloon
"Kasteel van Opleeuw: omgeving, kasteeldreef en park",Beschermd stads- of dorpsgezicht,2004/03/01,5.383,50.822,Borgloon
Gesloten hoeve Oude Winning: agrarische omgeving,Beschermd stads- of dorpsgezicht,2004/03/01,5.377,50.833,Borgloon
Gotem: agrarische omgeving Fonteinhof en dorpskern,Beschermd stads- of dorpsgezicht,2003/07/09,5.309,50.803,Borgloon
Parochiekerk Sint-Vedastus en pastorie met omgeving,Beschermd stads- of dorpsgezicht,1981/11/20,5.285,50.812,Borgloon
Gesloten hoeve: landelijke omgeving met wegkapel,Beschermd stads- of dorpsgezicht,2004/01/05,5.284,50.814,Borgloon
Gesloten hoeve: landelijke omgeving,Beschermd stads- of dorpsgezicht,2004/01/05,5.273,50.792,Borgloon
Cijnshof De Klee: omgeving,Beschermd stads- of dorpsgezicht,2003/07/09,5.333,50.811,Borgloon
Kuttekovenstraat van Graeth tot spoorwegbrug met omgeving,Beschermd stads- of dorpsgezicht,2003/07/09,5.332,50.807,Borgloon
"Kapel Schaberg, bomen en boerenburgerhuis met omgeving",Beschermd stads- of dorpsgezicht,1980/01/10,5.349,50.803,Borgloon
Kasteel van Rullingen met omgeving,Beschermd stads- of dorpsgezicht,1978/11/27,5.319,50.814,Borgloon
Speelhof: oostzijde,Beschermd stads- of dorpsgezicht,1983/03/09,5.346,50.802,Borgloon
Gasthuissteeg,Beschermd stads- of dorpsgezicht,1993/04/22,5.344,50.802,Borgloon
Kattesteeg,Beschermd stads- of dorpsgezicht,1993/04/22,5.347,50.801,Borgloon
Gevelwand Abeelplein en Graethemstraat: omgeving,Beschermd stads- of dorpsgezicht,1995/03/08,5.342,50.803,Borgloon
Gevelwand Abeelplein en Kroonstraat: omgeving,Beschermd stads- of dorpsgezicht,1995/03/08,5.344,50.803,Borgloon
Gevelwand Kroonstraat: omgeving,Beschermd stads- of dorpsgezicht,1995/03/08,5.345,50.803,Borgloon
Boerenburgerhuis: omgeving,Beschermd stads- of dorpsgezicht,1995/03/08,5.347,50.802,Borgloon
"Pastorie, kloostergang en sacristie: omgeving",Beschermd stads- of dorpsgezicht,1995/03/08,5.345,50.801,Borgloon
"Kasteel van Hulsberg: kasteelpark, ommuurde moestuin en agrarische omgeving",Beschermd stads- of dorpsgezicht,2004/06/09,5.326,50.803,Borgloon
Cultuurlandschap rond Kuttekoven,Beschermd cultuurhistorisch landschap,2005/07/12,5.328,50.814,Borgloon
Dorpskern Gors-Opleeuw,Beschermd stads- of dorpsgezicht,1986/10/17,5.399,50.826,Borgloon
Kleine Molenstraat,Beschermd stads- of dorpsgezicht,1981/05/20,5.670,50.817,Riemst
Kapel Sint-Severinus met omgeving,Beschermd stads- of dorpsgezicht,1984/10/16,5.589,50.792,Riemst
Herenhuis Swaenhoff: omgeving,Beschermd stads- of dorpsgezicht,1995/03/17,5.601,50.808,Riemst
Semi-gesloten hoeve,Beschermd stads- of dorpsgezicht,1995/03/17,5.602,50.813,Riemst
Gesloten hoeve: omgeving,Beschermd stads- of dorpsgezicht,1995/03/17,5.601,50.809,Riemst
Gesloten hoeve: omgeving,Beschermd stads- of dorpsgezicht,1995/03/17,5.604,50.807,Riemst
Parochiekerk Sint-Martinus: omgeving met kerkhof,Beschermd stads- of dorpsgezicht,1995/03/17,5.535,50.801,Riemst
Hoeven Kuesses en Vrindts: omgeving,Beschermd stads- of dorpsgezicht,1995/03/17,5.569,50.806,Riemst
Hoeve Vrijens: omgeving,Beschermd stads- of dorpsgezicht,1995/03/17,5.673,50.812,Riemst
Notariswoning Rendorp: omgeving,Beschermd stads- of dorpsgezicht,1995/03/17,5.669,50.812,Riemst
Smidse Darcis met hoeve: omgeving,Beschermd stads- of dorpsgezicht,1995/03/17,5.556,50.788,Riemst
Hoeve Bouveroux en villa en omgeving,Beschermd stads- of dorpsgezicht,1995/03/17,5.554,50.787,Riemst
Hoeve Burrefetwinning: omgeving,Beschermd stads- of dorpsgezicht,1995/03/17,5.592,50.786,Riemst
Gesloten hoeve: omgeving,Beschermd stads- of dorpsgezicht,1995/03/17,5.615,50.830,Riemst
Parochiekerk Sint-Albanus: kerkhof en hoeve,Beschermd stads- of dorpsgezicht,1995/03/17,5.589,50.834,Riemst
Dorpskern Millen,Beschermd stads- of dorpsgezicht,1980/10/14,5.561,50.786,Riemst
Pastorie Sint-Albanusparochie: omgeving,Beschermd stads- of dorpsgezicht,1995/03/17,5.590,50.834,Riemst
"Woning Poswick: rectorswoning, omheiningsmuur en onmiddellijke omgeving",Beschermd stads- of dorpsgezicht,1987/12/07,5.668,50.816,Riemst
Parochiekerk Sint-Pieter: omgeving met pastorie en burgerhuis,Beschermd stads- of dorpsgezicht,1995/03/17,5.620,50.791,Riemst
Gesloten hoeve met duifhuis: omgeving,Beschermd stads- of dorpsgezicht,1995/03/17,5.635,50.798,Riemst
Pastorie van de Sint-Genovevakerk: omgeving,Beschermd stads- of dorpsgezicht,1995/03/17,5.634,50.798,Riemst
Herenhuis: omgeving,Beschermd stads- of dorpsgezicht,1995/03/17,5.632,50.800,Riemst
Kasteel Sint-Pieter: omgeving,Beschermd stads- of dorpsgezicht,1995/03/17,5.633,50.802,Riemst
Parochiekerk Sint-Hubertus: kerkhof,Beschermd stads- of dorpsgezicht,1998/02/13,5.534,50.817,Riemst
Mergelkern Opkanne,Beschermd stads- of dorpsgezicht,2006/04/20,5.673,50.808,Riemst
Avergat,Beschermd stads- of dorpsgezicht,1995/03/17,5.670,50.808,Riemst
Tumulus Gentombe met omgeving,Beschermd cultuurhistorisch landschap,1976/08/10,5.570,50.805,Riemst
Plateau van Caestert,Beschermd cultuurhistorisch landschap,1978/11/27,5.685,50.808,Riemst
Burcht van Millen: omgeving,Beschermd stads- of dorpsgezicht,2000/04/19,5.559,50.787,Riemst
Westelijke valleiflank van de Jeker,Beschermd cultuurhistorisch landschap,2015/04/29,5.664,50.809,Riemst
Kasteel van Genoelselderen: omgeving,Beschermd stads- of dorpsgezicht,1995/09/08,5.534,50.804,Riemst
Tumulus met omgeving,Beschermd stads- of dorpsgezicht,2014/12/19,5.554,50.807,Riemst
Gesloten hoeve,Beschermd stads- of dorpsgezicht,1995/03/17,5.573,50.804,Riemst
Hoeve De Lindeboom: omgeving,Beschermd stads- of dorpsgezicht,1995/03/17,5.586,50.809,Riemst
Hoeve De Lindeboom: omgeving,Beschermd stads- of dorpsgezicht,1998/02/13,5.587,50.810,Riemst
Gesloten hoeve,Beschermd stads- of dorpsgezicht,1995/03/17,5.580,50.806,Riemst
Hof de Méan: omgeving,Beschermd stads- of dorpsgezicht,1995/03/17,5.609,50.796,Riemst
Hoeve Cilissen met omgeving,Beschermd stads- of dorpsgezicht,1995/03/17,5.675,50.814,Riemst
Hoeve Cilissen: omgeving,Beschermd stads- of dorpsgezicht,1998/02/13,5.675,50.814,Riemst
Mergelkern van Kanne,Beschermd stads- of dorpsgezicht,2006/04/20,5.672,50.813,Riemst
Gesloten hoeve Oude Winning,Beschermd stads- of dorpsgezicht,1995/03/17,5.573,50.806,Riemst
Burcht van Millen: omgeving overblijfselen burcht en kasteelhoeve,Beschermd cultuurhistorisch landschap,1977/05/27,5.559,50.786,Riemst
Parochiekerk Sint-Medardus: kerkhof en pastorietuin,Beschermd stads- of dorpsgezicht,2001/03/27,5.497,50.752,Tongeren
Notariswoning: tuin en voorhof met tuinmuur,Beschermd stads- of dorpsgezicht,2002/06/14,5.463,50.783,Tongeren
Gemeentelijke Jongens en -Tekenschool: voorhof,Beschermd stads- of dorpsgezicht,2002/07/01,5.463,50.783,Tongeren
Parochiekerk Sint-Jan de Doper met omgeving,Beschermd stads- of dorpsgezicht,1986/07/30,5.465,50.778,Tongeren
Watermolen Ruttermolen met omgeving,Beschermd stads- of dorpsgezicht,1984/04/11,5.433,50.752,Tongeren
Herenhuis: tuin,Beschermd stads- of dorpsgezicht,2002/05/23,5.468,50.780,Tongeren
Pastorie Sint-Martinusparochie: tuin,Beschermd stads- of dorpsgezicht,2002/06/25,5.443,50.748,Tongeren
Parochiekerk Sint-Pieter en pastorie: omgeving,Beschermd stads- of dorpsgezicht,1999/05/17,5.415,50.740,Tongeren
Klooster van de Zusters van Maria: tuin,Beschermd stads- of dorpsgezicht,2002/05/31,5.463,50.779,Tongeren
Motweide,Beschermd cultuurhistorisch landschap,1976/08/10,5.446,50.746,Tongeren
Samenhorende burgerhuizen: tuin met onder- en bovengrondse restanten,Beschermd stads- of dorpsgezicht,2005/05/12,5.466,50.780,Tongeren
Neotraditioneel burgerhuis: tuin,Beschermd stads- of dorpsgezicht,2002/05/23,5.466,50.780,Tongeren
Munthuis met omgeving,Beschermd stads- of dorpsgezicht,1991/12/16,5.462,50.778,Tongeren
Watermolen Motmolen met omgeving,Beschermd stads- of dorpsgezicht,1986/07/02,5.465,50.775,Tongeren
Kanunnikenhuis: omgeving,Beschermd stads- of dorpsgezicht,2000/12/08,5.464,50.781,Tongeren
Kapel Onze-Lieve-Vrouw van Zeven Weeën: omgeving,Beschermd stads- of dorpsgezicht,2001/02/27,5.490,50.750,Tongeren
Classicistisch burgerhuis: tuin,Beschermd stads- of dorpsgezicht,2002/05/23,5.466,50.780,Tongeren
Laatclassicistisch burgerhuis: omgeving,Beschermd stads- of dorpsgezicht,2002/05/23,5.467,50.783,Tongeren
Kanunnikenhuis: omgeving en poortgebouw,Beschermd stads- of dorpsgezicht,2002/05/23,5.464,50.781,Tongeren
Kasteel Rooi met omgeving,Beschermd stads- of dorpsgezicht,1984/01/18,5.444,50.793,Tongeren
Woontoren van Rutten: omgeving,Beschermd stads- of dorpsgezicht,2002/06/25,5.456,50.754,Tongeren
Parochiekerk Sint-Martinus: kerkhof,Beschermd stads- of dorpsgezicht,1999/06/23,5.443,50.747,Tongeren
Tumulus Herstappeltom: omgeving,Beschermd cultuurhistorisch landschap,1976/08/10,5.416,50.724,Tongeren
Beukenberg,Beschermd cultuurhistorisch landschap,1945/10/30,5.445,50.779,Tongeren
Galgenberg,Beschermd cultuurhistorisch landschap,1985/08/19,5.504,50.792,Tongeren
Watermolen Hogemolen met omgeving,Beschermd stads- of dorpsgezicht,1986/06/13,5.410,50.738,Tongeren
Pastorie Sint-Martinusparochie: omgeving,Beschermd stads- of dorpsgezicht,1999/06/22,5.441,50.747,Tongeren
Kanunnikenhuis: omgeving,Beschermd stads- of dorpsgezicht,1994/12/02,5.464,50.782,Tongeren
Tumuli met omgeving,Beschermd stads- of dorpsgezicht,1979/09/07,5.441,50.773,Tongeren
Begijnhof Sint-Catharina,Beschermd stads- of dorpsgezicht,1981/01/29,5.469,50.779,Tongeren
Parochiekerk Sint-Gillis met kerkhof en kerkhofmuur,Beschermd stads- of dorpsgezicht,1978/03/01,5.443,50.787,Tongeren
Dorpskom Overrepen,Beschermd stads- of dorpsgezicht,1981/01/29,5.432,50.808,Tongeren
Herenhuis met omgeving,Beschermd stads- of dorpsgezicht,2001/11/21,5.468,50.780,Tongeren
Brouwerswoning: tuin,Beschermd stads- of dorpsgezicht,2001/11/21,5.468,50.781,Tongeren
Eclectisch herenhuis: tuin,Beschermd stads- of dorpsgezicht,2001/11/21,5.468,50.781,Tongeren
Boerenwoning in vakwerk: omgeving,Beschermd stads- of dorpsgezicht,2002/06/25,5.445,50.750,Tongeren
Gesloten hoeve: omgeving,Beschermd stads- of dorpsgezicht,2002/06/25,5.442,50.748,Tongeren
"Gemeentehuis Rutten en gemeenteschool: omgeving met speelplaats, tuin, funderingen en kasseiweg",Beschermd stads- of dorpsgezicht,2002/06/25,5.443,50.748,Tongeren
Gesloten hoeve: omgeving,Beschermd stads- of dorpsgezicht,2002/06/25,5.445,50.751,Tongeren
Gesloten hoeve: omgeving,Beschermd stads- of dorpsgezicht,2002/06/25,5.445,50.748,Tongeren
Gesloten hoeve: omgeving,Beschermd stads- of dorpsgezicht,2002/06/25,5.439,50.746,Tongeren
Hoeve: omgeving,Beschermd stads- of dorpsgezicht,2002/06/25,5.447,50.747,Tongeren
Gesloten hoeve: omgeving,Beschermd stads- of dorpsgezicht,2002/06/25,5.445,50.749,Tongeren
Agnetenklooster met omgeving,Beschermd stads- of dorpsgezicht,1981/11/30,5.468,50.780,Tongeren
Parochiekerk Sint-Martinus: kerkhof benedictinessen,Beschermd stads- of dorpsgezicht,2002/06/25,5.443,50.748,Tongeren
Park van de Oostelijke Jeker,Beschermd cultuurhistorisch landschap,1985/09/02,5.499,50.778,Tongeren
Pastorie Sint-Trudoparochie met omgeving,Beschermd stads- of dorpsgezicht,1985/08/19,5.024,50.771,Landen
Tumulus Bortombe met omgeving,Beschermd stads- of dorpsgezicht,1979/08/21,5.101,50.741,Landen
Domein Gitterdal,Beschermd cultuurhistorisch landschap,1978/04/19,5.064,50.748,Landen
Heilige Kruiskapel met omgeving,Beschermd stads- of dorpsgezicht,1982/10/27,5.050,50.772,Landen
Dorpskern Neerlanden,Beschermd stads- of dorpsgezicht,1994/05/24,5.079,50.779,Landen
Watermolen Rufferdingemolen met omgeving,Beschermd stads- of dorpsgezicht,1996/03/19,5.085,50.752,Landen
Sint-Petrushoeve en gesloten hoeve met omgeving,Beschermd cultuurhistorisch landschap,1976/09/17,5.091,50.768,Landen
Watermolen Pitsaermolen en parochiekerk Sint-Gillis: omgeving,Beschermd stads- of dorpsgezicht,1999/02/04,5.078,50.769,Landen
Gesloten hoeve: omgeving,Beschermd cultuurhistorisch landschap,1976/06/11,5.099,50.723,Landen
Gesloten hoeven: omgeving,Beschermd cultuurhistorisch landschap,1976/10/15,5.089,50.720,Landen
Hoeve Janshoven: omgeving,Beschermd cultuurhistorisch landschap,1976/10/15,5.094,50.733,Landen
Station Racour met omgeving,Beschermd stads- of dorpsgezicht,2002/02/19,5.047,50.737,Landen
Watermolen Koningsmolen: omgeving,Beschermd stads- of dorpsgezicht,1999/06/10,5.013,50.781,Landen
Parochiekerk Sint-Pietersbanden en pastorie met omgeving,Beschermd stads- of dorpsgezicht,2014/03/14,5.089,50.767,Landen
Tumulus van Middelwinden,Beschermd cultuurhistorisch landschap,1933/12/30,5.043,50.762,Landen
Motte van Rumsdorp met omgeving,Beschermd stads- of dorpsgezicht,1979/03/13,5.076,50.768,Landen
Holle weg Longa,Beschermd cultuurhistorisch landschap,1982/07/01,4.988,50.769,Landen
Tumulus Waasmontse Tom met omgeving,Beschermd stads- of dorpsgezicht,1979/03/28,5.049,50.732,Landen
Herkenrodehoeve: omgeving,Beschermd cultuurhistorisch landschap,1976/10/14,5.297,50.737,Heers
Pastorie Sint-Stephanusparochie en omgeving,Beschermd stads- of dorpsgezicht,1981/02/02,5.281,50.738,Heers
Grotten van Henisdael,Beschermd cultuurhistorisch landschap,1985/09/30,5.384,50.752,Heers
Parochiekerk Onze-Lieve-Vrouw Ten Hemelopneming: kerkhof,Beschermd stads- of dorpsgezicht,1999/03/09,5.305,50.763,Heers
Hoeve de Naveau: agrarische omgeving,Beschermd stads- of dorpsgezicht,2005/02/03,5.297,50.734,Heers
"Parochiekerk Sint-Martinus, pastorie en kasteel en omgeving",Beschermd stads- of dorpsgezicht,1981/07/03,5.302,50.758,Heers
Hoeve Goed van Gothem en omgeving,Beschermd stads- of dorpsgezicht,1986/08/01,5.335,50.753,Heers
Gesloten hoeve met herenboerentuin en hekwerk: omgeving,Beschermd stads- of dorpsgezicht,2005/02/03,5.256,50.727,Heers
Parochiekerk Onze-Lieve-Vrouw-ten-Hemelopneming en pastorie: beeldondersteunende omgeving,Beschermd stads- of dorpsgezicht,2005/07/13,5.358,50.769,Heers
Kasteel van Heks en omgeving,Beschermd cultuurhistorisch landschap,1948/05/31,5.365,50.774,Heers
Kasteel van Heks: agrarische omgeving van het kasteeldomein en aanhankelijkheden,Beschermd stads- of dorpsgezicht,2005/07/13,5.365,50.768,Heers
Kasteel van Veulen: omgeving,Beschermd cultuurhistorisch landschap,1960/06/23,5.301,50.764,Heers
Klooster en school van de Soeurs de Marie,Beschermd stads- of dorpsgezicht,2005/07/13,5.256,50.738,Heers
Landelijke buffer tussen kasteel en dorp,Beschermd stads- of dorpsgezicht,2005/07/13,5.251,50.737,Heers
Hoeve Monnikenhof: omgeving,Beschermd stads- of dorpsgezicht,2005/07/13,5.376,50.773,Heers
Gesloten hoeve en U-vormige hoeve: omgeving,Beschermd stads- of dorpsgezicht,2005/07/13,5.307,50.763,Heers
Tumulus Graf van Gutshoven met omgeving,Beschermd stads- of dorpsgezicht,1981/07/24,5.332,50.770,Heers
Gesloten hoeve Manshovenhof: omgeving,Beschermd stads- of dorpsgezicht,2005/07/08,5.355,50.779,Heers
Klein-Gelmen: agrarische context,Beschermd stads- of dorpsgezicht,2005/07/13,5.276,50.769,Heers
Dorpskern van Batsheers,Beschermd stads- of dorpsgezicht,2006/01/25,5.282,50.737,Heers
Gehucht Sint-Pieters-Heurne,Beschermd stads- of dorpsgezicht,2005/07/12,5.367,50.759,Heers
Kasteelhoeve en -site de Montferrant: omgeving,Beschermd stads- of dorpsgezicht,2005/07/13,5.279,50.743,Heers
Dorpskern Gutschoven,Beschermd stads- of dorpsgezicht,2005/07/13,5.317,50.772,Heers
Tumulus met omgeving,Beschermd stads- of dorpsgezicht,2014/12/19,5.354,50.757,Heers
Hoeve Den Hof met omgeving,Beschermd stads- of dorpsgezicht,2000/06/16,5.815,50.749,Voeren
Martelberg-Graftengebied,Beschermd cultuurhistorisch landschap,1990/07/02,5.821,50.756,Voeren
Kruisgraef,Beschermd cultuurhistorisch landschap,1985/07/03,5.748,50.767,Voeren
Hoeve Blancktyshof: resterende gebouwen hoevecomplex,Beschermd stads- of dorpsgezicht,2001/11/20,5.763,50.759,Voeren
Gesloten hoeve: 19de-eeuws volume en inrijpoort,Beschermd stads- of dorpsgezicht,2001/11/20,5.763,50.759,Voeren
Vakwerkschuur: omgeving,Beschermd stads- of dorpsgezicht,2001/11/20,5.845,50.765,Voeren
Hoeve met losse bestanddelen: omgeving,Beschermd stads- of dorpsgezicht,2001/11/20,5.882,50.732,Voeren
Hoeve met losse bestanddelen en gedenkteken: omgeving,Beschermd stads- of dorpsgezicht,2001/11/20,5.891,50.720,Voeren
Pastorie Sint-Pieters-Stoelparochie: pastorietuin,Beschermd stads- of dorpsgezicht,2002/06/14,5.825,50.738,Voeren
Parochiekerk Sint-Martinus met omgeving,Beschermd stads- of dorpsgezicht,1984/04/11,5.812,50.749,Voeren
Dorpskern Teuven,Beschermd stads- of dorpsgezicht,2003/05/28,5.875,50.752,Voeren
Altenbroek en Voervallei met omgeving,Beschermd cultuurhistorisch landschap,2017/12/21,5.782,50.763,Voeren
Hoeve Kloosterhof: omgeving,Beschermd stads- of dorpsgezicht,2003/05/28,5.875,50.747,Voeren
Hoeve: omgeving,Beschermd stads- of dorpsgezicht,2003/05/28,5.862,50.758,Voeren
Kinkenberg,Beschermd cultuurhistorisch landschap,1960/11/30,5.763,50.759,Voeren
Dorpskern 's-Gravenvoeren,Beschermd stads- of dorpsgezicht,2014/12/15,5.762,50.758,Voeren
Hoeve met losse bestanddelen en omgeving,Beschermd stads- of dorpsgezicht,2014/12/19,5.850,50.736,Voeren
Gulpvallei met omgeving,Beschermd cultuurhistorisch landschap,2017/12/21,5.887,50.751,Voeren
Hoogbos,Beschermd cultuurhistorisch landschap,1985/07/22,5.772,50.776,Voeren
"Drie Tommen, Twee Tommen en Avernassetom met omgeving",Beschermd stads- of dorpsgezicht,1979/03/13,5.159,50.711,Gingelom
"Hoeve van Nerem, watermolen en Onze-Lieve-Vrouwkapel",Beschermd stads- of dorpsgezicht,1987/01/16,5.143,50.730,Gingelom
Hof te Schiebeek met omgeving,Beschermd stads- of dorpsgezicht,1981/10/23,4.026,50.739,Herne
Site van het Kartuizerklooster Onze-Lieve-Vrouw-Kapelle: omgeving,Beschermd stads- of dorpsgezicht,2003/01/20,4.036,50.732,Herne
Parochiekerk Sint-Pieter met omgeving,Beschermd stads- of dorpsgezicht,1980/01/04,3.992,50.708,Herne
Kasteelhoeve: omgeving,Beschermd cultuurhistorisch landschap,1977/02/04,3.382,50.738,Spiere-Helkijn
Kasteeldomein van Spiere,Beschermd cultuurhistorisch landschap,1971/09/08,3.352,50.724,Spiere-Helkijn
Hoeve Weverbergh: omgeving,Beschermd stads- of dorpsgezicht,2007/04/05,3.945,50.713,Bever
Linde,Beschermd cultuurhistorisch landschap,1940/03/08,4.804,51.474,Hoogstraten
Parochiekerk Sint-Jan Baptist met kerkhof,Beschermd cultuurhistorisch landschap,1950/06/03,4.794,51.398,Hoogstraten
Parochiekerk Onze-Lieve-Vrouw Bezoeking en omgeving,Beschermd cultuurhistorisch landschap,1975/05/27,4.736,51.443,Hoogstraten
Meerseldreef,Beschermd cultuurhistorisch landschap,1953/04/13,4.775,51.496,Hoogstraten
Gekandelaarde lindendreef Vrijheid,Beschermd cultuurhistorisch landschap,1955/04/19,4.761,51.400,Hoogstraten
Rijksweldadigheidskolonie Wortel,Beschermd cultuurhistorisch landschap,1999/06/29,4.824,51.402,Hoogstraten
Dorpskom Meerle,Beschermd stads- of dorpsgezicht,1981/09/03,4.806,51.474,Hoogstraten
Turbinewatermolen met omgeving,Beschermd stads- of dorpsgezicht,1993/01/19,4.773,51.488,Hoogstraten
Parochiekerk Sint-Jan Baptist: omgeving,Beschermd cultuurhistorisch landschap,1975/07/07,4.794,51.398,Hoogstraten
Begijnhof van Hoogstraten,Beschermd cultuurhistorisch landschap,1971/05/27,4.764,51.403,Hoogstraten
Windmolen Salm-Salmmolen en omgeving,Beschermd cultuurhistorisch landschap,1973/01/05,4.765,51.410,Hoogstraten
Pastorie 't Withof: gronden binnen omwalling,Beschermd cultuurhistorisch landschap,1976/10/15,4.769,51.412,Hoogstraten
Pastorie Sint-Valentinusparochie en omgeving,Beschermd cultuurhistorisch landschap,1975/03/19,5.040,51.448,Ravels
Windmolen De Nachtegaal der Maatvennen: omgeving,Beschermd cultuurhistorisch landschap,1976/08/10,5.000,51.373,Ravels
Het Kijkverdriet,Beschermd cultuurhistorisch landschap,1985/07/03,5.027,51.361,Ravels
Oude Pastorie: omgeving,Beschermd cultuurhistorisch landschap,1976/08/10,4.473,51.466,Essen
De Maatjes (Den Helder),Beschermd cultuurhistorisch landschap,1976/01/06,4.532,51.430,Kalmthout
Kalmthoutse Heide,Beschermd cultuurhistorisch landschap,1984/07/04,4.430,51.400,Kalmthout
Kassemse eik,Beschermd cultuurhistorisch landschap,1944/02/02,4.471,51.388,Kalmthout
Erfgoedlandschap Domein Franciscanessenklooster,Erfgoedlandschap,2012/03/05,4.560,51.359,Wuustwezel
Dorpskern Wuustwezel,Beschermd stads- of dorpsgezicht,1993/02/01,4.599,51.389,Wuustwezel
Parochiekerk Sint-Petrus en Sint-Paulus: kerkhof,Beschermd cultuurhistorisch landschap,1976/06/11,4.644,51.399,Wuustwezel
Dorpskern Loenhout,Beschermd stads- of dorpsgezicht,1979/03/13,4.641,51.402,Wuustwezel
Hoeve Nuytemans met omgeving,Beschermd stads- of dorpsgezicht,1978/02/21,4.604,51.404,Wuustwezel
Vloeikenshoeve met omgeving,Beschermd stads- of dorpsgezicht,1978/03/01,4.614,51.387,Wuustwezel
Rijksweldadigheidskolonie Merksplas,Beschermd cultuurhistorisch landschap,1999/06/29,4.829,51.356,Merksplas
Hoeve Groote Hoef en omgeving,Beschermd stads- of dorpsgezicht,1993/04/22,4.888,51.353,Merksplas
Zwartwater,Beschermd cultuurhistorisch landschap,1980/09/09,4.933,51.370,Turnhout
Filipkensvijver,Beschermd cultuurhistorisch landschap,1984/06/26,4.909,51.326,Turnhout
Begijnhof,Beschermd cultuurhistorisch landschap,1962/12/05,4.944,51.327,Turnhout
Hoeve Groenhuis met omgeving,Beschermd stads- of dorpsgezicht,1980/09/18,4.955,51.326,Turnhout
Afspanning De Nieuwen Buiten met omgeving,Beschermd stads- of dorpsgezicht,1981/06/11,4.934,51.321,Turnhout
Hoeve Gasthuishoeve met omgeving,Beschermd cultuurhistorisch landschap,1974/12/20,4.934,51.337,Turnhout
Garenblekerij Boones Blijk met omgeving,Beschermd cultuurhistorisch landschap,1974/12/20,4.937,51.338,Turnhout
Apenbomen bij gemeentehuis van Rijkevorsel,Beschermd cultuurhistorisch landschap,1939/02/20,4.759,51.350,Rijkevorsel
Erfgoedlandschap Brechtse Heide,Erfgoedlandschap,2011/06/08,4.670,51.321,Brecht
Erfgoedlandschap De Merel,Erfgoedlandschap,2013/12/06,4.604,51.318,Brecht
Onze-Lieve-Vrouw van Zeven Weeënkapel met omgeving,Beschermd stads- of dorpsgezicht,1986/06/03,4.663,51.353,Brecht
Hoeven en kapel met omgeving,Beschermd stads- of dorpsgezicht,1986/06/03,4.626,51.328,Brecht
Waterhoeve met omgeving,Beschermd cultuurhistorisch landschap,1973/01/05,4.647,51.351,Brecht
Brechtse Heide,Beschermd cultuurhistorisch landschap,1977/05/27,4.626,51.307,Brecht
Stenen windmolen: omgeving,Beschermd cultuurhistorisch landschap,1977/05/24,4.636,51.347,Brecht
Koraalplaats,Beschermd stads- of dorpsgezicht,1978/06/16,4.458,51.220,Antwerpen
Den Spieghel,Beschermd cultuurhistorisch landschap,1976/02/24,4.400,51.222,Antwerpen
Vlaaikensgang: gevels en bedakingen,Beschermd cultuurhistorisch landschap,1973/01/05,4.399,51.220,Antwerpen
Stadswoning met omgeving,Beschermd stads- of dorpsgezicht,1979/06/26,4.404,51.224,Antwerpen
Stadswaag,Beschermd stads- of dorpsgezicht,1986/06/18,4.407,51.224,Antwerpen
Koninklijke Academie voor Schone Kunsten: tuin,Beschermd cultuurhistorisch landschap,1974/04/12,4.406,51.223,Antwerpen
Begijnhof,Beschermd cultuurhistorisch landschap,1975/02/24,4.414,51.222,Antwerpen
Neoclassicistisch burgerhuis en 16de-eeuws hofje,Beschermd stads- of dorpsgezicht,1984/07/10,4.414,51.221,Antwerpen
Pastorie Sint-Bartholomeusparochie: omgeving,Beschermd cultuurhistorisch landschap,1975/11/10,4.440,51.241,Antwerpen
Hertoghepark,Beschermd cultuurhistorisch landschap,1974/02/21,4.407,51.195,Antwerpen
Sint-Stanislascollege: scholencomplex,Beschermd stads- of dorpsgezicht,2004/06/11,4.417,51.196,Antwerpen
Kardinaal Mercierlei met omgeving,Beschermd stads- of dorpsgezicht,1994/03/04,4.414,51.197,Antwerpen
Watertorens met omgeving,Beschermd stads- of dorpsgezicht,1985/11/25,4.436,51.227,Antwerpen
Herberg De Exter: omgeving,Beschermd cultuurhistorisch landschap,1976/06/11,4.465,51.201,Antwerpen
Unitas Tuinwijk,Beschermd stads- of dorpsgezicht,1982/10/27,4.466,51.198,Antwerpen
Het Vliet,Beschermd cultuurhistorisch landschap,1980/01/31,4.346,51.225,Antwerpen
Blokkersdijk,Beschermd cultuurhistorisch landschap,1980/05/12,4.350,51.233,Antwerpen
Het Rot,Beschermd cultuurhistorisch landschap,1987/03/30,4.361,51.224,Antwerpen
Lillo-fort met veer en getijdehaven,Beschermd stads- of dorpsgezicht,1981/04/15,4.289,51.305,Antwerpen
Sterckshof: kasteel en omgrachting,Beschermd stads- of dorpsgezicht,1994/02/17,4.462,51.215,Antwerpen
Windmolen Westmolengeest met omgeving,Beschermd stads- of dorpsgezicht,1981/11/06,4.312,51.351,Antwerpen
Victor Jacobslei,Beschermd stads- of dorpsgezicht,1992/10/23,4.425,51.199,Antwerpen
Hof ter Beke met omgeving,Beschermd stads- of dorpsgezicht,1982/12/15,4.379,51.152,Antwerpen
Kasteeldomein Bouckenborgh,Beschermd cultuurhistorisch landschap,1976/06/16,4.453,51.245,Antwerpen
Eclectisch ensemble ontworpen door G. Van Oenen,Beschermd stads- of dorpsgezicht,1994/03/03,4.394,51.210,Antwerpen
Deel Plantin en Moretuslei met omgeving,Beschermd stads- of dorpsgezicht,1994/09/01,4.424,51.211,Antwerpen
Domein Kasteel Klaverblad,Beschermd stads- of dorpsgezicht,1994/09/16,4.361,51.154,Antwerpen
Domein Schoonselhof met oranjerie en omgeving,Beschermd cultuurhistorisch landschap,1942/12/30,4.369,51.165,Antwerpen
Kasteeldomein Middelheim: park met ringgrachten en aanhorigheden,Beschermd cultuurhistorisch landschap,1976/07/09,4.413,51.180,Antwerpen
Huizenrij Beeldhouwersstraat,Beschermd stads- of dorpsgezicht,1994/03/03,4.394,51.208,Antwerpen
Directeurswoning haringrokerij: tuin,Beschermd stads- of dorpsgezicht,1987/01/16,4.396,51.212,Antwerpen
Nachtegalenpark,Beschermd cultuurhistorisch landschap,2005/02/01,4.410,51.184,Antwerpen
Huizenrijen Vlaamsekaai,Beschermd stads- of dorpsgezicht,1994/03/03,4.392,51.211,Antwerpen
Herentalse Vaart met brug,Beschermd cultuurhistorisch landschap,1982/06/30,4.476,51.212,Antwerpen
Kasteel Sorghvliedt met park,Beschermd cultuurhistorisch landschap,1968/09/17,4.353,51.169,Antwerpen
Godshuis Sint-Barbara met binnenpleintje,Beschermd stads- of dorpsgezicht,1980/01/10,4.411,51.219,Antwerpen
Burgerhuizen met omgeving,Beschermd stads- of dorpsgezicht,1979/02/14,4.402,51.215,Antwerpen
Godshuis Maesgang,Beschermd stads- of dorpsgezicht,1991/11/18,4.398,51.217,Antwerpen
"Site Vlaamse Opera, schermenmagazijn en hotel Wagner",Beschermd stads- of dorpsgezicht,2017/06/16,4.417,51.219,Antwerpen
Het Torenhof met park,Beschermd cultuurhistorisch landschap,1976/05/13,4.401,51.199,Antwerpen
Kasteeldomein Hof van Veltwijck,Beschermd cultuurhistorisch landschap,1949/02/18,4.425,51.276,Antwerpen
Kasteeldomein Hof van Veltwijck: uitbreiding,Beschermd cultuurhistorisch landschap,1992/07/01,4.425,51.278,Antwerpen
Parochiekerk Sint-Fredegandus: kerkhof,Beschermd cultuurhistorisch landschap,1976/10/14,4.455,51.221,Antwerpen
Unitas Tuinwijk: uitbreiding,Beschermd stads- of dorpsgezicht,2002/09/06,4.464,51.195,Antwerpen
Unitas Tuinwijk: uitbreiding,Beschermd stads- of dorpsgezicht,2002/09/06,4.464,51.195,Antwerpen
Zurenborg: deel Berchem,Beschermd stads- of dorpsgezicht,1980/01/10,4.433,51.203,Antwerpen
Bouwblok met pakhuizen,Beschermd stads- of dorpsgezicht,1994/03/03,4.407,51.228,Antwerpen
De Marbaixstraat,Beschermd stads- of dorpsgezicht,2003/12/04,4.437,51.228,Antwerpen
Kasteel Runcvoort met omgeving,Beschermd stads- of dorpsgezicht,1984/07/10,4.441,51.248,Antwerpen
Hoeve Royenborg met omgeving,Beschermd stads- of dorpsgezicht,1984/07/10,4.454,51.257,Antwerpen
Leopold De Waelstraat en Lambermontplaats,Beschermd stads- of dorpsgezicht,1994/03/03,4.391,51.207,Antwerpen
Watertorens station Antwerpen-Oost met omgeving,Beschermd stads- of dorpsgezicht,1985/01/21,4.434,51.206,Antwerpen
Den Donckeren Nacht,Beschermd stads- of dorpsgezicht,1978/01/13,4.397,51.216,Antwerpen
Het Vosken,Beschermd stads- of dorpsgezicht,1978/01/13,4.397,51.216,Antwerpen
Huis B,Beschermd stads- of dorpsgezicht,1978/01/13,4.397,51.216,Antwerpen
Opgaande bruine beuk wassende voor de Sint-Willibrorduskerk,Beschermd cultuurhistorisch landschap,1949/02/18,4.420,51.193,Antwerpen
Kasteel Boekenberg: park,Beschermd cultuurhistorisch landschap,1974/01/23,4.463,51.198,Antwerpen
Oude Landen: fase 1,Beschermd cultuurhistorisch landschap,1980/02/13,4.424,51.270,Antwerpen
Oude Landen: fase 2,Beschermd cultuurhistorisch landschap,1987/12/27,4.430,51.274,Antwerpen
Dierentuin Antwerpen,Beschermd cultuurhistorisch landschap,1974/09/26,4.423,51.216,Antwerpen
Groot Buitenschoor - Galgeschoor,Beschermd cultuurhistorisch landschap,1987/06/09,4.256,51.348,Antwerpen
Hotel Della Faille de Leverghem met kruidtuin,Beschermd cultuurhistorisch landschap,1950/01/17,4.406,51.214,Antwerpen
Woningen: stadsbeeld,Beschermd cultuurhistorisch landschap,1973/11/26,4.414,51.218,Antwerpen
Hobokense Polder,Beschermd cultuurhistorisch landschap,1996/03/08,4.347,51.190,Antwerpen
Cantelmolinie,Beschermd cultuurhistorisch landschap,1991/11/18,3.354,51.319,Knokke-Heist
Het Zwin,Beschermd cultuurhistorisch landschap,1939/04/07,3.359,51.363,Knokke-Heist
Graaf Jansdijk: deel,Beschermd cultuurhistorisch landschap,1959/05/05,3.346,51.337,Knokke-Heist
Groenpleinduinen,Beschermd cultuurhistorisch landschap,1982/09/15,3.318,51.356,Knokke-Heist
Hazegraspolder,Beschermd cultuurhistorisch landschap,1982/01/28,3.354,51.346,Knokke-Heist
Zwinbosjes,Beschermd cultuurhistorisch landschap,1983/02/09,3.337,51.356,Knokke-Heist
Drie polderhoeven en kasseiweg,Beschermd stads- of dorpsgezicht,1980/10/06,3.352,51.341,Knokke-Heist
Graaf Jansdijk: deel met Kalfmolen,Beschermd stads- of dorpsgezicht,1995/05/29,3.315,51.339,Knokke-Heist
Parochiekerk Sint-Vincentius met ommegang,Beschermd stads- of dorpsgezicht,1985/10/30,3.250,51.315,Knokke-Heist
Landhuis met tuin,Beschermd stads- of dorpsgezicht,1995/10/18,3.240,51.338,Knokke-Heist
Parochiekerk Sint-Niklaas: omgeving,Beschermd stads- of dorpsgezicht,1996/07/04,3.303,51.314,Knokke-Heist
Windmolen Molen van Callant met omgeving,Beschermd stads- of dorpsgezicht,1999/06/10,3.252,51.313,Knokke-Heist
Engels klooster met omgeving,Beschermd stads- of dorpsgezicht,1982/09/22,3.234,51.216,Brugge
Dorpskom Dudzele,Beschermd stads- of dorpsgezicht,1979/08/21,3.229,51.275,Brugge
Hoeve Groot Eekhoute,Beschermd stads- of dorpsgezicht,1996/05/10,3.165,51.237,Brugge
Opgaande beukendreef bij domein De Bergskens,Beschermd cultuurhistorisch landschap,1959/05/05,3.255,51.190,Brugge
Wallen- en grachtencomplex,Beschermd cultuurhistorisch landschap,1976/09/13,3.278,51.186,Brugge
Kasteeldomein Leysselbeek,Beschermd stads- of dorpsgezicht,1982/11/10,3.222,51.176,Brugge
Kasteeldomein Rooigem: park,Beschermd stads- of dorpsgezicht,1994/07/14,3.265,51.217,Brugge
Dorpskom Koolkerke,Beschermd stads- of dorpsgezicht,1995/06/09,3.248,51.242,Brugge
Hoeve Groot Magdalenagoed met dreef en omheining,Beschermd stads- of dorpsgezicht,2004/10/15,3.201,51.165,Brugge
Vrouwengevangenis,Beschermd stads- of dorpsgezicht,1985/07/03,3.192,51.203,Brugge
Huis de Galeye,Beschermd stads- of dorpsgezicht,1991/12/16,3.224,51.210,Brugge
"Kasteeldomein Groene Poort: boomgaard, weiland en park",Beschermd stads- of dorpsgezicht,1981/02/02,3.234,51.235,Brugge
Kasteeldomein Tudor: park,Beschermd stads- of dorpsgezicht,1991/12/16,3.167,51.171,Brugge
Abdijsite Sint-Trudo,Beschermd stads- of dorpsgezicht,2003/01/20,3.243,51.185,Brugge
Hoeven De Groote Schuure en Fort van Beieren: omgeving,Beschermd stads- of dorpsgezicht,2013/04/19,3.249,51.235,Brugge
Dorpskom Sint-Pieters-op-den-Dijk,Beschermd stads- of dorpsgezicht,2013/03/13,3.205,51.229,Brugge
Fort van Beieren,Beschermd cultuurhistorisch landschap,1976/07/06,3.254,51.238,Brugge
Jezuïetencollege met omgeving,Beschermd stads- of dorpsgezicht,1995/06/09,3.230,51.211,Brugge
Gouverneurswoning Hotel Ruzette met koetshuis,Beschermd stads- of dorpsgezicht,1994/03/03,3.229,51.212,Brugge
Hoeve De Rozeblomme met omgeving,Beschermd stads- of dorpsgezicht,1978/01/13,3.208,51.271,Brugge
Samenstel van woningen,Beschermd stads- of dorpsgezicht,1999/07/08,3.232,51.192,Brugge
Samenstel van twee woonhuizen: tuin met omheiningsmuur,Beschermd stads- of dorpsgezicht,1994/07/14,3.233,51.206,Brugge
Parochiekerk Sint-Andries en Sint-Anna met kerkhof,Beschermd stads- of dorpsgezicht,2001/11/13,3.180,51.196,Brugge
Site Abdij Ter Doest,Beschermd cultuurhistorisch landschap,1981/09/23,3.204,51.281,Brugge
Herenhuis Hof de Gros met bijgebouwen en tuin,Beschermd stads- of dorpsgezicht,1979/03/28,3.221,51.211,Brugge
Veerhuis met aanlegplaats en omgeving,Beschermd stads- of dorpsgezicht,1980/09/10,3.229,51.199,Brugge
Dorpskom Assebroek,Beschermd stads- of dorpsgezicht,1978/11/28,3.275,51.188,Brugge
Gehucht Male,Beschermd stads- of dorpsgezicht,1996/07/04,3.289,51.209,Brugge
Classicistisch landhuis met tuin,Beschermd stads- of dorpsgezicht,2017/06/28,3.245,51.202,Brugge
"Spiegelrei, Gouden-Handrei en Sint-Annarei met omgeving",Beschermd stads- of dorpsgezicht,1992/06/17,3.229,51.212,Brugge
Neoclassicistisch herenhuis met tuin,Beschermd stads- of dorpsgezicht,1979/03/28,3.216,51.207,Brugge
Langerei en Potterierei met omgeving,Beschermd stads- of dorpsgezicht,2015/02/16,3.231,51.218,Brugge
Tuinbouwbedrijf Van Hollebeke met omgeving,Beschermd stads- of dorpsgezicht,2004/04/16,3.245,51.202,Brugge
Hoeve De Goudblomme met omgeving,Beschermd stads- of dorpsgezicht,1981/09/11,3.206,51.268,Brugge
"Klooster van de zusters redemptoristinnen: klooster, oranjerie en tuin",Beschermd stads- of dorpsgezicht,2010/06/03,3.228,51.202,Brugge
Minnewater en omgeving,Beschermd stads- of dorpsgezicht,1996/07/04,3.224,51.200,Brugge
Domein Engelendale,Beschermd stads- of dorpsgezicht,1995/11/10,3.276,51.194,Brugge
Begijnhof,Beschermd cultuurhistorisch landschap,1939/02/20,3.223,51.201,Brugge
Brugse geplantsoeneerde stadsomwalling,Beschermd stads- of dorpsgezicht,2016/01/20,3.222,51.206,Brugge
Groene Rei met omgeving,Beschermd stads- of dorpsgezicht,2017/12/15,3.230,51.209,Brugge
Stadswal met omgeving,Beschermd cultuurhistorisch landschap,1962/05/28,3.238,51.214,Brugge
Jachtopzienerswoning bij kasteel De Rode Poort: omgeving,Beschermd stads- of dorpsgezicht,1995/01/03,3.209,51.178,Brugge
Koninklijke hoofdgilde van Sint-Sebastiaan met omgeving,Beschermd cultuurhistorisch landschap,1958/09/20,3.237,51.215,Brugge
Markt en Burg met omgeving,Beschermd stads- of dorpsgezicht,2017/03/15,3.225,51.209,Brugge
"Vismarkt, Huidenvettersplein en Rozenhoedkaai met omgeving",Beschermd stads- of dorpsgezicht,2018/11/12,3.228,51.208,Brugge
Landhuizen met omgeving,Beschermd stads- of dorpsgezicht,1994/03/07,4.419,51.324,Kapellen
Oude Gracht Kapellen,Erfgoedlandschap,2018/07/05,4.462,51.324,Kapellen
Het Rood en omgeving,Beschermd cultuurhistorisch landschap,1999/06/01,4.407,51.325,Kapellen
Parochiekerk Sint-Jozef: omgeving,Beschermd cultuurhistorisch landschap,1976/06/23,4.461,51.316,Kapellen
"Parochiekerk Sint-Jacobus de Meerdere, pastorie en tuin",Beschermd stads- of dorpsgezicht,1982/07/14,4.427,51.316,Kapellen
Erfgoedlandschap Deel van ankerplaats Polders van Stabroek,Erfgoedlandschap,2013/06/17,4.372,51.315,Stabroek
Parochiekerk Onze-Lieve-Vrouw Geboorte met omgeving,Beschermd cultuurhistorisch landschap,1973/01/05,4.396,51.303,Stabroek
Kasteel Ravenhof met omgeving,Beschermd stads- of dorpsgezicht,1979/03/13,4.386,51.353,Stabroek
Pastorie Onze-Lieve-Vrouwparochie: omgeving,Beschermd cultuurhistorisch landschap,1976/09/13,4.282,51.222,Beveren
Dorpskom Melsele,Beschermd stads- of dorpsgezicht,1982/10/27,4.282,51.221,Beveren
Singelberg,Beschermd cultuurhistorisch landschap,1975/10/22,4.245,51.235,Beveren
Kreek De Grote Geule: fase 1,Beschermd cultuurhistorisch landschap,1978/01/26,4.169,51.282,Beveren
Kasteeldomein Hof ter Saksen: park,Beschermd cultuurhistorisch landschap,1989/11/09,4.239,51.199,Beveren
Sint-Engelbertusstraat,Beschermd stads- of dorpsgezicht,2013/02/27,4.214,51.327,Beveren
Herenhuis Hof ten Damme met tuin,Beschermd stads- of dorpsgezicht,1981/01/13,4.280,51.253,Beveren
"Groothof, Prosperhoeve en herenhoeve met omgeving",Beschermd stads- of dorpsgezicht,1982/09/22,4.209,51.325,Beveren
Slikken en schorren van Oude Doel,Beschermd cultuurhistorisch landschap,1981/12/17,4.249,51.338,Beveren
Kasteeldomein Hof ter Welle: omgeving,Beschermd cultuurhistorisch landschap,1974/04/12,4.250,51.208,Beveren
Erfgoedlandschap Park van Brasschaat,Erfgoedlandschap,2009/08/10,4.494,51.285,Brasschaat
Dekenij Sint-Antonius Abtparochie met omgeving,Beschermd cultuurhistorisch landschap,1975/11/12,4.493,51.290,Brasschaat
Antitankgracht,Beschermd cultuurhistorisch landschap,2007/05/31,4.495,51.303,Brasschaat
Hoekhuis De Rode Leeuw met linde en omgeving,Beschermd stads- of dorpsgezicht,1978/01/23,4.491,51.290,Brasschaat
Oude Gracht Brasschaat,Erfgoedlandschap,2018/10/01,4.477,51.321,Brasschaat
"Domein De Mik: Engelse tuin, omgrachting en gebouwen",Beschermd stads- of dorpsgezicht,1981/11/20,4.535,51.312,Brasschaat
De Schrieken,Beschermd cultuurhistorisch landschap,1991/04/24,4.822,51.288,Beerse
Complex Mamet,Beschermd stads- of dorpsgezicht,1998/06/08,3.130,51.314,Blankenberge
Konijnenberg,Beschermd cultuurhistorisch landschap,1980/09/04,4.883,51.310,Vosselaar
Sint-Martinuskapel,Beschermd cultuurhistorisch landschap,1976/09/03,4.694,51.297,Malle
Kapel Onze-Lieve-Vrouw van Bijstand met park en Lourdesgrot,Beschermd stads- of dorpsgezicht,1995/05/19,4.740,51.295,Malle
Erfgoedlandschap Abdij van Westmalle,Erfgoedlandschap,2012/12/04,4.647,51.289,Malle
Sint-Antoniuskapel van Salphen met omgeving,Beschermd stads- of dorpsgezicht,1983/02/23,4.740,51.275,Malle
Engelenkapel: omgeving,Beschermd cultuurhistorisch landschap,1976/09/13,4.699,51.293,Malle
Pastorie: tuin,Beschermd cultuurhistorisch landschap,1976/09/13,4.695,51.298,Malle
Beltmolen Scherpenbergmolen met omgeving,Beschermd stads- of dorpsgezicht,1979/03/13,4.680,51.295,Malle
Kasteel van Westmalle: omgeving,Beschermd cultuurhistorisch landschap,1977/05/06,4.694,51.306,Malle
Wolfskapel met omgeving,Beschermd stads- of dorpsgezicht,1985/01/21,4.722,51.301,Malle
Klokkeven,Beschermd cultuurhistorisch landschap,1993/12/03,4.720,51.323,Malle
Windmolen Hubertmolen met omgeving,Beschermd cultuurhistorisch landschap,1946/02/08,3.077,51.297,De Haan
Ensemble van vakantiewoningen,Beschermd stads- of dorpsgezicht,2003/06/27,3.033,51.272,De Haan
De Haan Concessie: centrale deel,Beschermd stads- of dorpsgezicht,1981/06/24,3.032,51.275,De Haan
De Haan Concessie: uitbreiding tot hele vroegere Concessie,Beschermd stads- of dorpsgezicht,1995/03/08,3.034,51.277,De Haan
Ensemble van villa's met omgeving,Beschermd stads- of dorpsgezicht,1981/06/24,3.037,51.274,De Haan
Parochiekerk Sint-Blasius met omgeving,Beschermd stads- of dorpsgezicht,1985/04/23,3.055,51.255,De Haan
Sint-Christoffelhoeve met omgeving,Beschermd cultuurhistorisch landschap,1964/05/29,3.278,51.252,Damme
Stadskern Damme,Beschermd stads- of dorpsgezicht,1987/03/30,3.282,51.251,Damme
Windmolen van Hoeke met omgeving,Beschermd stads- of dorpsgezicht,1981/11/16,3.332,51.299,Damme
Het Kasteel van Moerkerke met omgeving,Beschermd stads- of dorpsgezicht,1981/09/22,3.341,51.245,Damme
Omwalde hoeve Rostune met omgeving,Beschermd stads- of dorpsgezicht,1983/02/03,3.343,51.202,Damme
Dorpskern Vivenkapelle,Beschermd stads- of dorpsgezicht,1980/12/11,3.307,51.231,Damme
Sluis De Blauwe Sluis: kreek en omgeving,Beschermd cultuurhistorisch landschap,1976/02/05,3.363,51.297,Damme
Site Ten Doele,Beschermd cultuurhistorisch landschap,1987/03/30,3.301,51.298,Damme
Krekengebied,Beschermd cultuurhistorisch landschap,1988/08/01,3.354,51.274,Damme
Parochiekerk Sint-Jan-Baptist: kerkhof,Beschermd cultuurhistorisch landschap,1975/10/22,3.581,51.268,Sint-Laureins
Godshuis en omgeving,Beschermd stads- of dorpsgezicht,1986/06/03,3.522,51.242,Sint-Laureins
Dorpskom Watervliet,Beschermd stads- of dorpsgezicht,1986/10/17,3.625,51.277,Sint-Laureins
Graaf Jansdijk,Beschermd cultuurhistorisch landschap,1994/04/13,3.577,51.250,Sint-Laureins
Peerdsbos,Beschermd cultuurhistorisch landschap,1936/07/31,4.484,51.274,Schoten
Kasteel van Schoten: kasteel met omliggend park,Beschermd cultuurhistorisch landschap,1968/09/11,4.491,51.244,Schoten
Gelmelenhof en omgeving,Beschermd stads- of dorpsgezicht,1998/07/30,4.498,51.252,Schoten
"Pastorie Sint-Cordulaparochie met tuin, bibliotheek en woningen",Beschermd stads- of dorpsgezicht,1998/07/30,4.499,51.250,Schoten
Hotels Wenduine en Westende en deel van kanaal Dessel-Schoten met brug en brugwachterswoning,Beschermd stads- of dorpsgezicht,1998/07/30,4.511,51.259,Schoten
Dorpskom Gierle,Beschermd stads- of dorpsgezicht,1978/12/29,4.868,51.267,Lille
Windmolen In Stormen Sterk met omgeving,Beschermd stads- of dorpsgezicht,1981/11/06,4.865,51.270,Lille
Grotenhoutbos,Beschermd cultuurhistorisch landschap,2001/04/24,4.885,51.288,Lille
Hoeve De Schrans met omgeving,Beschermd stads- of dorpsgezicht,1986/06/03,4.818,51.237,Lille
Molenaarswoning en olieslagmolen met omgeving,Beschermd stads- of dorpsgezicht,1993/02/01,4.806,51.234,Lille
Vallei van de Kindernouwbeek,Beschermd cultuurhistorisch landschap,1996/02/16,4.798,51.244,Lille
Weiland en deel Blankenbergse Dijk,Beschermd stads- of dorpsgezicht,1995/10/18,3.157,51.267,Zuienkerke
Dorpskom Houtave,Beschermd stads- of dorpsgezicht,1993/01/19,3.109,51.236,Zuienkerke
Dorpskom Meetkerke,Beschermd stads- of dorpsgezicht,1993/01/19,3.153,51.233,Zuienkerke
Dorpskom Nieuwmunster,Beschermd stads- of dorpsgezicht,1993/01/19,3.099,51.274,Zuienkerke
Dorpskom Zuienkerke: centraal deel,Beschermd stads- of dorpsgezicht,1993/01/19,3.156,51.266,Zuienkerke
's Gravenhof met omgeving,Beschermd stads- of dorpsgezicht,1979/06/21,4.560,51.269,Schilde
Schranshoeve met omgeving,Beschermd stads- of dorpsgezicht,1980/07/09,4.554,51.266,Schilde
Couwenberghhoeve met omgeving,Beschermd stads- of dorpsgezicht,1981/09/03,4.604,51.282,Schilde
Pastorie Sint-Catharinaparochie,Beschermd stads- of dorpsgezicht,1980/07/09,4.554,51.264,Schilde
Herenhuis Tollenberg met omgeving,Beschermd stads- of dorpsgezicht,1981/09/03,4.576,51.238,Schilde
Vinkenhof met omgeving,Beschermd stads- of dorpsgezicht,1980/07/09,4.548,51.258,Schilde
Pastorie en parochiekerk Sint-Guibertus met omgeving,Beschermd cultuurhistorisch landschap,1976/10/14,4.584,51.231,Schilde
Langgestrekte hoeve met omgeving,Beschermd stads- of dorpsgezicht,1982/11/10,4.588,51.240,Schilde
Molenhoeve met omgeving,Beschermd stads- of dorpsgezicht,1980/07/09,4.561,51.258,Schilde
Parochiekerk Sint-Catharina en omgeving,Beschermd stads- of dorpsgezicht,1980/07/09,4.554,51.263,Schilde
Hoeve en kasteel Spreeuwenborg met omgeving,Beschermd stads- of dorpsgezicht,1981/09/03,4.592,51.234,Schilde
Schans d'Oudaen met omgeving,Beschermd stads- of dorpsgezicht,1980/07/09,4.560,51.272,Schilde
Hoeve met omgeving,Beschermd stads- of dorpsgezicht,1980/07/09,4.541,51.247,Schilde
Domein Catershof,Beschermd cultuurhistorisch landschap,1975/04/17,4.563,51.265,Schilde
Dreef bij Kasteel van 's Gravenwezel,Beschermd stads- of dorpsgezicht,1980/07/09,4.563,51.263,Schilde
Kasteel Hof ter Linden en omgeving,Beschermd stads- of dorpsgezicht,1980/07/09,4.558,51.248,Schilde
Kasteel van 's Gravenwezel en omgeving,Beschermd stads- of dorpsgezicht,1980/07/09,4.568,51.261,Schilde
Domein Hof Te Schilde,Beschermd stads- of dorpsgezicht,1981/09/03,4.570,51.225,Schilde
Pastorijdreef,Beschermd stads- of dorpsgezicht,1981/09/03,4.583,51.230,Schilde
Puttenhof en Diegemhof met omgeving,Beschermd stads- of dorpsgezicht,1981/09/03,4.588,51.234,Schilde
Dobbelhoeve met omgeving,Beschermd stads- of dorpsgezicht,1981/09/03,4.607,51.229,Schilde
Zoerselbos: fase 2,Beschermd cultuurhistorisch landschap,1985/11/21,4.681,51.252,Zoersel
Parochiekerk Heilige Elisabeth van Hongarije: kerkhof en kerkhofmuur,Beschermd stads- of dorpsgezicht,1982/09/15,4.712,51.267,Zoersel
Pastorie Heilige Elisabethparochie met tuin,Beschermd cultuurhistorisch landschap,1976/09/17,4.709,51.268,Zoersel
Kasteel Zoerselhof met omgeving,Beschermd stads- of dorpsgezicht,1993/06/24,4.700,51.258,Zoersel
Zoerselbos: fase 1,Beschermd cultuurhistorisch landschap,1981/01/22,4.685,51.245,Zoersel
Opgaande hulst en notelaar in pastorietuin,Beschermd cultuurhistorisch landschap,1974/04/12,4.635,51.265,Zoersel
Kreek De Grote Geule: fase 2,Beschermd cultuurhistorisch landschap,1978/07/27,4.140,51.241,Sint-Gillis-Waas
Baanvak Sint-Niklaas - De Klinge op de spoorlijn Mechelen - Terneuzen,Beschermd cultuurhistorisch landschap,1997/03/10,4.109,51.218,Sint-Gillis-Waas
Dwarsschuur met omgeving,Beschermd stads- of dorpsgezicht,2011/09/08,4.101,51.202,Sint-Gillis-Waas
Dorpskom Sint-Pauwels,Beschermd stads- of dorpsgezicht,2011/09/08,4.096,51.193,Sint-Gillis-Waas
Boerenwoning met omgeving,Beschermd stads- of dorpsgezicht,2011/09/08,4.105,51.189,Sint-Gillis-Waas
Twistkapellen met omgeving,Beschermd stads- of dorpsgezicht,2011/09/08,4.092,51.206,Sint-Gillis-Waas
Watermolen met omgeving,Beschermd cultuurhistorisch landschap,1953/04/13,4.876,51.246,Kasterlee
Grote Heide,Beschermd cultuurhistorisch landschap,1982/07/02,4.883,51.209,Kasterlee
Zwart Ven,Beschermd cultuurhistorisch landschap,1980/12/24,4.876,51.210,Kasterlee
Hoge Mouw,Beschermd cultuurhistorisch landschap,1988/04/15,4.952,51.232,Kasterlee
Kapel Onze-Lieve-Vrouw in 't Zand,Beschermd cultuurhistorisch landschap,1953/08/13,4.908,51.224,Kasterlee
Snepkensvijver met omgeving,Beschermd cultuurhistorisch landschap,1990/07/02,4.885,51.200,Kasterlee
"Langenberg, De Bergen en Goor Akkers",Beschermd cultuurhistorisch landschap,1992/06/01,4.938,51.226,Kasterlee
Pastorie Onze-Lieve-Vrouwparochie: tuin en omgeving,Beschermd cultuurhistorisch landschap,1974/09/30,4.924,51.226,Kasterlee
Parochiekerk Onze-Lieve-Vrouw Hemelvaart met kerkhof,Beschermd stads- of dorpsgezicht,1981/09/22,3.676,51.230,Assenede
Kasteeldomein Ter Leyen,Beschermd cultuurhistorisch landschap,1977/01/11,3.719,51.256,Assenede
Parochiekerk Sint-Barbara en omgeving,Beschermd stads- of dorpsgezicht,1981/02/10,3.447,51.210,Maldegem
Papinglohoeve met omgeving,Beschermd stads- of dorpsgezicht,1981/09/18,3.448,51.171,Maldegem
Visserskapel Onze-Lieve-Vrouw-ter-Duinen en omgeving,Beschermd stads- of dorpsgezicht,1982/09/22,2.981,51.253,Bredene
Defensieve Dijk,Beschermd cultuurhistorisch landschap,2001/09/14,4.300,51.231,Zwijndrecht
Duin- en polderlandschap,Beschermd cultuurhistorisch landschap,1979/09/07,2.869,51.210,Oostende
Parochiekerk Onze-Lieve-Vrouw Hemelvaart: ruime omgeving,Beschermd stads- of dorpsgezicht,1981/09/22,2.871,51.211,Oostende
Grote Keignaertkreek,Beschermd cultuurhistorisch landschap,1992/11/27,2.967,51.199,Oostende
Hoeve De Lange Schuure: omgeving,Beschermd stads- of dorpsgezicht,2005/05/26,2.929,51.199,Oostende
Parochiekerk Onze-Lieve-Vrouw Hemelvaart: kerkhof,Beschermd cultuurhistorisch landschap,1975/05/27,2.872,51.211,Oostende
Dorpskom Stene,Beschermd stads- of dorpsgezicht,1995/04/05,2.914,51.202,Oostende
Wellington-hippodroom,Beschermd stads- of dorpsgezicht,1998/10/01,2.896,51.221,Oostende
Fort Napoleon en omgeving,Beschermd cultuurhistorisch landschap,1976/07/06,2.936,51.238,Oostende
Duinenstraat,Beschermd cultuurhistorisch landschap,1959/05/05,2.849,51.202,Oostende
Hoeve Sassenhout met erf,Beschermd stads- of dorpsgezicht,1980/07/18,4.827,51.211,Vorselaar
Kasteel de Borrekens met omgeving,Beschermd stads- of dorpsgezicht,1984/06/21,4.777,51.211,Vorselaar
Dorpskom Kaprijke,Beschermd stads- of dorpsgezicht,1981/09/18,3.618,51.218,Kaprijke
Dorpskom Lembeke,Beschermd stads- of dorpsgezicht,1986/10/22,3.632,51.195,Kaprijke
Het Steengelaag,Beschermd cultuurhistorisch landschap,1981/05/21,4.053,51.202,Stekene
Dorpskern Stekene,Beschermd stads- of dorpsgezicht,1981/09/18,4.041,51.207,Stekene
Domein Bautersemhof,Beschermd stads- of dorpsgezicht,1993/04/22,4.667,51.210,Zandhoven
Kasteel Montens met omgeving,Beschermd stads- of dorpsgezicht,1993/04/22,4.631,51.202,Zandhoven
Windmolen De Bergmolen: omgeving,Beschermd cultuurhistorisch landschap,1976/10/14,4.695,51.225,Zandhoven
Dorpskern Zandhoven,Beschermd cultuurhistorisch landschap,1976/07/06,4.661,51.216,Zandhoven
Domein Hovorst,Beschermd stads- of dorpsgezicht,1980/12/19,4.666,51.195,Zandhoven
Kasteel Hof van Liere: omgeving,Beschermd stads- of dorpsgezicht,1993/04/22,4.643,51.215,Zandhoven
Herenhuis Bergenhof met omgeving,Beschermd stads- of dorpsgezicht,1993/04/22,4.654,51.209,Zandhoven
Binnenbos en omgeving,Beschermd cultuurhistorisch landschap,1994/05/05,4.677,51.208,Zandhoven
Dorpskern Pulderbos: zuidoostzijde,Beschermd stads- of dorpsgezicht,1982/10/27,4.692,51.217,Zandhoven
Dorpskern Pulderbos,Beschermd cultuurhistorisch landschap,1976/01/13,4.692,51.219,Zandhoven
Herberg Sint-Hubert,Beschermd stads- of dorpsgezicht,1994/05/11,3.093,51.182,Jabbeke
Vloetemveld,Beschermd cultuurhistorisch landschap,2008/01/07,3.107,51.152,Jabbeke
Hoeve met losse bestanddelen met omgeving,Beschermd stads- of dorpsgezicht,1983/02/03,3.080,51.207,Jabbeke
Boerenmolen met omgeving,Beschermd cultuurhistorisch landschap,1981/02/24,3.105,51.170,Jabbeke
Houtopslagplaats van aannemersbedrijf Leurs met omgeving,Beschermd stads- of dorpsgezicht,1993/02/01,4.995,51.163,Geel
Hoeve Brukelhoeve met omgeving,Beschermd stads- of dorpsgezicht,1995/04/07,4.992,51.150,Geel
Reivennen,Beschermd cultuurhistorisch landschap,1985/09/23,5.030,51.190,Geel
Gooreind,Beschermd cultuurhistorisch landschap,1995/02/06,4.973,51.196,Geel
De Zegge,Beschermd cultuurhistorisch landschap,1984/11/26,4.939,51.198,Geel
Zammelsbroek: fase 1,Beschermd cultuurhistorisch landschap,1991/07/16,4.958,51.094,Geel
Landschap van Bel,Beschermd cultuurhistorisch landschap,2001/06/29,5.058,51.155,Geel
Molen van Larum met omgeving,Beschermd stads- of dorpsgezicht,1992/06/10,4.946,51.164,Geel
Kasteel Kijckuit met omgeving,Beschermd stads- of dorpsgezicht,1994/03/07,4.520,51.238,Wijnegem
Domein Wijnegemhof met omgeving,Beschermd cultuurhistorisch landschap,1977/12/23,4.528,51.224,Wijnegem
Kasteel Pulhof met omgeving,Beschermd stads- of dorpsgezicht,1994/03/07,4.534,51.237,Wijnegem
Domein Ertbrugge - Zwarte Arend,Beschermd cultuurhistorisch landschap,1985/09/16,4.488,51.229,Wijnegem
Kapel Sint-Gummarus: omgeving,Beschermd cultuurhistorisch landschap,1976/09/17,4.600,51.161,Ranst
Runcvoorthoeve met omgeving,Beschermd stads- of dorpsgezicht,1981/09/11,4.585,51.221,Ranst
Kasteeldomein Doggenhout,Beschermd stads- of dorpsgezicht,1993/02/01,4.561,51.187,Ranst
Kasteeldomein Zevenbergen,Beschermd stads- of dorpsgezicht,1993/02/01,4.556,51.195,Ranst
Hoeve De Nederhinne en Hinnepikhoeve met omgeving,Beschermd stads- of dorpsgezicht,1994/03/07,4.607,51.184,Ranst
Kasteeldomein Bossenstein,Beschermd cultuurhistorisch landschap,1962/05/28,4.595,51.194,Ranst
Brouwerij Den Bol met omgeving,Beschermd stads- of dorpsgezicht,1981/09/11,4.601,51.210,Ranst
Allierse kapel met omgeving,Beschermd stads- of dorpsgezicht,1981/09/22,4.582,51.153,Ranst
Cijnshoeve met omgeving,Beschermd stads- of dorpsgezicht,1993/02/01,4.540,51.191,Ranst
Kasteeldomein Broechemhof met omgeving,Beschermd stads- of dorpsgezicht,1997/02/03,4.607,51.195,Ranst
Kastanjelaan,Beschermd cultuurhistorisch landschap,1981/12/17,4.561,51.196,Ranst
Bos van Ranst,Beschermd cultuurhistorisch landschap,1985/11/22,4.564,51.199,Ranst
Vallei van het Groot Schijn,Beschermd cultuurhistorisch landschap,1990/12/19,4.593,51.223,Ranst
Domein Vrieselhof,Beschermd cultuurhistorisch landschap,2005/05/26,4.607,51.223,Ranst
Buitengoed 't Reigersnest met omgeving,Beschermd stads- of dorpsgezicht,2002/09/06,2.998,51.168,Oudenburg
Pachthoeve 't Klokhof met weiland,Beschermd stads- of dorpsgezicht,2002/09/06,3.016,51.160,Oudenburg
Neoclassicistisch landhuis De Campagne: tuin met omheiningsmuur,Beschermd stads- of dorpsgezicht,2002/09/06,3.007,51.199,Oudenburg
Sluizencomplex Plassendale met omgeving,Beschermd stads- of dorpsgezicht,1997/02/11,3.004,51.210,Oudenburg
Hof van Coudenborn en omgeving,Beschermd stads- of dorpsgezicht,1979/02/23,3.978,51.175,Moerbeke
Herberg Etboshoeve met omgeving,Beschermd stads- of dorpsgezicht,2000/12/01,3.923,51.151,Moerbeke
Krekengebied Pereboomsgat,Beschermd cultuurhistorisch landschap,1977/09/21,3.953,51.215,Moerbeke
Parochiekerk Sint-Catharina en omgeving,Beschermd stads- of dorpsgezicht,1978/02/01,3.858,51.168,Wachtebeke
Moervaartvallei,Erfgoedlandschap,2018/08/28,3.898,51.159,Wachtebeke
Dorpskern Wommelgem,Beschermd stads- of dorpsgezicht,1979/08/21,4.523,51.204,Wommelgem
Sint-Janskapel met omgeving,Beschermd cultuurhistorisch landschap,1970/07/08,4.522,51.213,Wommelgem
Kasteel Selsaete met omgeving,Beschermd stads- of dorpsgezicht,1981/11/20,4.531,51.200,Wommelgem
Hofke Moons met omgeving,Beschermd stads- of dorpsgezicht,1982/10/27,4.523,51.206,Wommelgem
Hof Sompeken met omgeving,Beschermd stads- of dorpsgezicht,1994/02/17,4.533,51.216,Wommelgem
Parochiekerk Sint-Vincentius met aanpalende straten,Beschermd stads- of dorpsgezicht,1983/12/07,3.566,51.184,Eeklo
Groot Goed met dreef en omwalling,Beschermd stads- of dorpsgezicht,1993/05/06,3.576,51.203,Eeklo
Villa Dageraad met tuin,Beschermd stads- of dorpsgezicht,1994/03/10,3.579,51.177,Eeklo
"Sint-Elisabethgasthuis, Kleine Nete, woningen met tuinen en stadsomwalling",Beschermd stads- of dorpsgezicht,1979/09/11,4.836,51.186,Herentals
Klooster van de zusters annonciaden,Beschermd stads- of dorpsgezicht,2004/04/13,4.840,51.141,Herentals
Herenhuis Molenwaterhof met omgeving,Beschermd stads- of dorpsgezicht,1979/09/11,4.836,51.183,Herentals
Herenhuis Molenwaterhof: uitbreiding omgeving,Beschermd stads- of dorpsgezicht,1994/09/16,4.836,51.183,Herentals
Begijnhof met omgeving,Beschermd stads- of dorpsgezicht,1979/09/11,4.838,51.181,Herentals
Windmolen Hogewegmolen: omgeving,Beschermd stads- of dorpsgezicht,1991/09/12,4.819,51.145,Herentals
Hof Le Paige met omgeving,Beschermd stads- of dorpsgezicht,1979/09/11,4.836,51.186,Herentals
Westzijde Grote Markt,Beschermd stads- of dorpsgezicht,1979/09/11,4.836,51.177,Herentals
Neoclassicistisch burgerhuis met omgeving,Beschermd stads- of dorpsgezicht,1979/09/11,4.836,51.175,Herentals
Ter Duinen,Beschermd cultuurhistorisch landschap,2000/05/31,4.732,51.170,Grobbendonk
Banmolen met omgeving,Beschermd cultuurhistorisch landschap,1962/05/28,4.753,51.195,Grobbendonk
Afspanning De Kroon met omgeving,Beschermd stads- of dorpsgezicht,1979/02/08,4.751,51.163,Grobbendonk
Hoeve De Roskam,Beschermd stads- of dorpsgezicht,2011/01/10,4.720,51.162,Grobbendonk
Kasteeldomein Bouwelhof,Beschermd cultuurhistorisch landschap,1980/02/20,4.749,51.169,Grobbendonk
Interfluvium Kleine Nete en Aa met Graafweide,Beschermd cultuurhistorisch landschap,2005/09/19,4.763,51.190,Grobbendonk
Konijnenbergen,Beschermd cultuurhistorisch landschap,1994/06/16,4.724,51.166,Grobbendonk
Britse basis,Beschermd cultuurhistorisch landschap,1997/03/11,4.779,51.181,Grobbendonk
Parochiekerk Onze-Lieve-Vrouw ten Hemel Opgenomen met omgeving,Beschermd cultuurhistorisch landschap,1967/09/11,4.744,51.170,Grobbendonk
Priorij Onze-Lieve-Vrouw Ten Troon: omgeving,Beschermd stads- of dorpsgezicht,1978/03/01,4.780,51.185,Grobbendonk
Parochiekerk Onze-Lieve-Vrouw met omgeving,Beschermd cultuurhistorisch landschap,1976/07/06,2.877,51.175,Middelkerke
Dorpskom Westende-Bad,Beschermd stads- of dorpsgezicht,1996/04/17,2.775,51.169,Middelkerke
Sint-Laureinsstrand,Beschermd cultuurhistorisch landschap,1982/07/01,2.766,51.166,Middelkerke
Heiderelicten,Beschermd cultuurhistorisch landschap,1982/07/02,2.773,51.149,Middelkerke
Hoeve De Kleine Bamburg met erf en omgeving,Beschermd stads- of dorpsgezicht,1995/09/08,2.788,51.148,Middelkerke
Site van de windmolen Groenhagemolen,Beschermd stads- of dorpsgezicht,2005/05/03,2.875,51.174,Middelkerke
Heilig Hartkapel en omgeving,Beschermd stads- of dorpsgezicht,1981/07/24,4.121,51.175,Sint-Niklaas
Hoeve gedateerd 1663 met omgeving,Beschermd stads- of dorpsgezicht,1982/04/15,4.120,51.174,Sint-Niklaas
Dorpskom Sinaai,Beschermd stads- of dorpsgezicht,1983/02/03,4.042,51.157,Sint-Niklaas
Dekenij met omgeving,Beschermd stads- of dorpsgezicht,1983/02/23,4.148,51.165,Sint-Niklaas
